# LAS format data
~Version Information
VERS.     2.00: CWLS LOG ASCII STANDARD - VERSION 2.0
WRAP.       NO: ONE LINE PER DEPTH STEP
~Well Information
#MNEM   .UNITS    DATA                           DESCRIPTION
#----   ------    ----                           -----------
STRT    .M        4182.0000                     :First Index Value
STOP    .M        48.1000                       :Last Index Value
STEP    .M        -0.1000                       :Frame Spacing
NULL    .         -999.2500                     :Absent Value
WELL    .         L07-04                        :Well Name   
FLD     .         UNKNOWN                       :Field Name  
CNTY    .                                       :County
STAT    .                                       :State
CTRY    .                                       :Country
LOC     .                                       :Location
API     .                                       :API Number
DATE    .                                       :Date
COMP    .         PETROLAND                     :Company Name
SRVC    .                                       :Service Company
~Parameter Information
#MNEM   .UNITS    VALUE                          DESCRIPTION
#----   ------    -----                          -----------
TDD     .M        4182.00000                    :Total Depth (Driller)   
UBID    .         7265                          :Unique Borehole Id  
PDAT    .         Mean Sea Level                :Permanent Datum 
EPD     .M           0.00000                    :Elevation of Permanent Datum (PDAT) above Mean Sea Level
LMF     .         Rotary Table                  :Logging Measured From (Name of Logging Elevation Reference) 
APD     .M          30.50000                    :Elevation of Depth Reference (LMF) Above Permanent Datum
EGL     .M         -34.30000                    :Elevation of Ground Level Above Mean Sea Level  
~Curve Information
#MNEM   .UNITS    API CODE                       CURVE DESCRIPTION
#----   ------    --------                       -----------------
DEPT    .M                                      :1     Index curve
GR      .GAPI                                   :2     L07-04
DT      .US/F                                   :3     L07-04
RHOB    .G/C3                                   :4     L07-04
DRHO    .G/C3                                   :5     L07-04
NPHI    .V/V                                    :6     L07-04
~Ascii Log Data
# ...
    4047.6001     90.657974     64.137772      2.719491      0.043016      0.143881
    4047.5001     96.434586     64.938904      2.704645      0.023356      0.152202
    4047.4001     99.787689     65.100632      2.697583      0.015165      0.151247
    4047.3001    100.006836     64.472946      2.705589      0.028684      0.144789
    4047.2001     99.129074     63.649338      2.710384      0.033293      0.138282
    4047.1001     97.588943     62.983139      2.710770      0.024905      0.133605
    4047.0001     96.328400     62.781166      2.709793      0.014330      0.131481
    4046.9001     96.928528     63.034897      2.710701      0.022218      0.130976
    4046.8001     98.307632     63.810577      2.713137      0.027217      0.133921
    4046.7001     98.658997     64.931747      2.712272      0.009199      0.141452
    4046.6001     98.416931     65.790054      2.700162      0.000256      0.150218
    4046.5001     99.744797     66.448227      2.685681      0.000224      0.159227
    4046.4001    104.523010     67.113159      2.683168      0.000227      0.167238
    4046.3001    108.959534     67.379990      2.687559      0.000281      0.171492
    4046.2001    111.739929     67.042709      2.693476      0.000863      0.170982
    4046.1001    112.182434     66.309372      2.694130      0.004872      0.167541
    4046.0001    110.494431     65.707352      2.696087      0.016243      0.163799
    4045.9001    107.227936     65.352325      2.700172      0.023619      0.160454
    4045.8001    104.495895     65.054749      2.700789      0.010722      0.156953
    4045.7001    102.770523     64.798340      2.693979      0.000340      0.152219
    4045.6001    102.133820     64.587051      2.684531      0.000996      0.146564
    4045.5001    101.358978     64.436050      2.688486      0.006504      0.142573
    4045.4001     98.631516     64.300217      2.706055      0.026284      0.139972
    4045.3001     94.166748     64.179230      2.725721      0.051381      0.138360
    4045.2001     91.943756     64.255402      2.727399      0.053336      0.137232
    4045.1001     93.004868     64.985901      2.727111      0.050098      0.136897
    4045.0001     97.277618     66.411560      2.730878      0.051034      0.138773
    4044.9001    102.180374     67.687363      2.723702      0.043450      0.144160
    4044.8001    106.732285     68.496460      2.715515      0.036246      0.151498
    4044.7001    108.976715     68.471359      2.712403      0.030784      0.156831
    4044.6001    107.732559     67.613403      2.705911      0.015975      0.156036
    4044.5001    103.184525     66.037567      2.696944      0.002719      0.146880
    4044.4001     97.020416     64.412964      2.690212      0.000435      0.133543
    4044.3001     91.112061     63.428062      2.687416      0.000374      0.124673
    4044.2001     87.160812     63.168175      2.684185      0.000421      0.121123
    4044.1001     85.713654     63.332634      2.677609      0.000413      0.119990
    4044.0001     85.651443     63.804123      2.673833      0.000425      0.120551
    4043.9001     86.279282     64.455231      2.676507      0.000435      0.122552
    4043.8001     87.323914     65.136124      2.682686      0.000749      0.125597
    4043.7001     89.344025     65.837128      2.688553      0.003764      0.129790
    4043.6001     92.390854     66.461838      2.698792      0.014037      0.135170
    4043.5001     95.639191     66.901810      2.714055      0.030565      0.142312
    4043.4001     98.147720     67.295959      2.720595      0.041780      0.151947
    4043.3001     99.421799     68.067871      2.711325      0.035214      0.161759
    4043.2001    100.761200     69.313156      2.697587      0.015675      0.169807
    4043.1001    104.215973     70.444916      2.694611      0.002398      0.177748
    4043.0001    109.761551     71.238495      2.699075      0.000405      0.187238
    4042.9001    115.098282     71.934982      2.698380      0.000414      0.197599
    4042.8001    118.162109     72.545975      2.693810      0.000345      0.206472
    4042.7001    118.895203     72.982422      2.687948      0.000167      0.213203
    4042.6001    118.949005     73.071304      2.682539     -0.000348      0.217794
    4042.5001    119.367386     72.701782      2.681261     -0.001406      0.218700
    4042.4001    119.842758     72.143311      2.683545     -0.002521      0.215976
    4042.3001    119.423523     71.822540      2.687129     -0.002730      0.210589
    4042.2001    118.084198     71.812119      2.692617     -0.001788      0.203294
    4042.1001    116.589340     71.805664      2.698282     -0.000538      0.196631
    4042.0001    115.839661     71.505615      2.700378      0.000474      0.194026
    4041.9001    116.150406     70.874237      2.699914      0.004739      0.195560
    4041.8001    116.688995     69.911041      2.701672      0.019909      0.197359
    4041.7001    115.703491     68.533295      2.705100      0.044537      0.194938
    4041.6001    111.893723     66.785355      2.702734      0.063727      0.186117
    4041.5001    105.988647     64.994247      2.693031      0.069959      0.171365
    4041.4001     99.668060     63.525124      2.683313      0.067921      0.154048
    4041.3001     93.787521     62.595688      2.679099      0.060767      0.139652
    4041.2001     88.588913     62.244469      2.678818      0.052567      0.130450
    4041.1001     84.237442     62.353020      2.679457      0.047306      0.124117
    4041.0001     81.065460     62.725929      2.680708      0.041778      0.118640
    4040.9001     79.436539     63.138412      2.680159      0.031387      0.114321
    4040.8001     79.294540     63.391586      2.677393      0.020344      0.111971
    4040.7001     80.067154     63.418999      2.678695      0.018328      0.111408
    4040.6001     81.149124     63.335655      2.685045      0.025419      0.111877
    4040.5001     82.078476     63.327942      2.690462      0.032582      0.112752
    4040.4001     82.641098     63.469910      2.692491      0.034213      0.113885
    4040.3001     83.124405     63.695267      2.690651      0.028407      0.115481
    4040.2001     84.047089     63.930618      2.685995      0.016443      0.117483
    4040.1001     85.458847     64.213242      2.684549      0.005691      0.119423
    4040.0001     86.810776     64.654678      2.687858      0.001388      0.121415
    4039.9001     87.917419     65.319244      2.690814      0.003244      0.124180
    4039.8001     89.787247     66.170425      2.691492      0.011782      0.128521
    4039.7001     93.576248     67.097061      2.689569      0.024213      0.136156
    4039.6001     99.084579     67.900681      2.685075      0.032842      0.147465
    4039.5001    104.942734     68.369247      2.683588      0.035228      0.158503
    4039.4001    109.176193     68.466873      2.687687      0.034965      0.164844
    4039.3001    110.337265     68.257858      2.691839      0.035008      0.165888
    4039.2001    109.251953     67.618652      2.692980      0.034151      0.163818
    4039.1001    107.718964     66.648453      2.689327      0.028467      0.160895
    4039.0001    106.581268     65.883102      2.678630      0.016992      0.158415
    4038.9001    105.763947     65.520981      2.666833      0.005763      0.156865
    4038.8001    104.842545     65.327271      2.661794      0.000980      0.155782
    4038.7001    103.292892     65.103622      2.660542      0.000243      0.153535
    4038.6001    100.681946     64.995239      2.657532      0.000599      0.148628
    4038.5001     97.018280     65.196014      2.652182      0.001140      0.141570
    4038.4001     92.778870     65.615723      2.649067      0.001119      0.134906
    4038.3001     88.836899     66.260101      2.651352      0.001044      0.131081
    4038.2001     85.506607     67.133133      2.656995      0.004342      0.130571
    4038.1001     81.043655     68.006882      2.658862      0.013484      0.131535
