# LAS format data
~Version Information
VERS.     2.00: CWLS LOG ASCII STANDARD - VERSION 2.0
WRAP.       NO: ONE LINE PER DEPTH STEP
~Well Information
#MNEM   .UNITS    DATA                           DESCRIPTION
#----   ------    ----                           -----------
STRT    .M        4182.0000                     :First Index Value
STOP    .M        48.1000                       :Last Index Value
STEP    .M        -0.1000                       :Frame Spacing
NULL    .         -999.2500                     :Absent Value
WELL    .         L07-04                        :Well Name   
FLD     .         UNKNOWN                       :Field Name  
CNTY    .                                       :County
STAT    .                                       :State
CTRY    .                                       :Country
LOC     .                                       :Location
API     .                                       :API Number
DATE    .                                       :Date
COMP    .         PETROLAND                     :Company Name
SRVC    .                                       :Service Company
~Parameter Information
#MNEM   .UNITS    VALUE                          DESCRIPTION
#----   ------    -----                          -----------
TDD     .M        4182.00000                    :Total Depth (Driller)   
UBID    .         7265                          :Unique Borehole Id  
PDAT    .         Mean Sea Level                :Permanent Datum 
EPD     .M           0.00000                    :Elevation of Permanent Datum (PDAT) above Mean Sea Level
LMF     .         Rotary Table                  :Logging Measured From (Name of Logging Elevation Reference) 
APD     .M          30.50000                    :Elevation of Depth Reference (LMF) Above Permanent Datum
EGL     .M         -34.30000                    :Elevation of Ground Level Above Mean Sea Level  
~Curve Information
#MNEM   .UNITS    API CODE                       CURVE DESCRIPTION
#----   ------    --------                       -----------------
DEPT    .M                                      :1     Index curve
GR      .GAPI                                   :2     L07-04
DT      .US/F                                   :3     L07-04
RHOB    .G/C3                                   :4     L07-04
DRHO    .G/C3                                   :5     L07-04
NPHI    .V/V                                    :6     L07-04
~Ascii Log Data
# ...
    4018.8003    100.726196     67.514297      2.654660      0.000170      0.145711
    4018.7003    102.114639     67.836166      2.650035      0.000118      0.155577
    4018.6003    102.100006     67.695175      2.649572      0.000092      0.161370
    4018.5003    101.101288     67.121246      2.651962      0.000107      0.162909
    4018.4003    100.205826     66.403793      2.655307      0.000146      0.161481
    4018.3003     99.682190     65.705978      2.661798      0.000209      0.158895
    4018.2003     98.459015     64.942307      2.671177      0.000261      0.156039
    4018.1003     95.890106     64.060547      2.678400      0.000261      0.151765
    4018.0003     93.327057     63.343811      2.679793      0.000264      0.144125
    4017.9003     92.194443     63.080399      2.675611      0.000310      0.134323
    4017.8003     92.148804     63.248695      2.668748      0.000339      0.126438
    4017.7003     91.841080     63.647575      2.662965      0.000307      0.122062
    4017.6003     90.452621     64.035675      2.662357      0.000277      0.120113
    4017.5003     88.450500     64.239105      2.668574      0.000336      0.119409
    4017.4003     87.130554     64.293121      2.676302      0.001266      0.119669
    4017.3003     87.401993     64.354996      2.679559      0.006628      0.120498
    4017.2003     89.359756     64.557358      2.680270      0.019278      0.121321
    4017.1003     93.489258     64.994781      2.685948      0.032419      0.122943
    4017.0003     99.322113     65.644424      2.701066      0.037792      0.126307
    4016.9003    104.227676     66.260986      2.718477      0.039276      0.130862
    4016.8003    106.500366     66.588806      2.730186      0.044241      0.136778
    4016.7003    105.515594     66.510269      2.731199      0.052951      0.144121
    4016.6003    101.254700     66.142792      2.721861      0.053488      0.150549
    4016.5003     95.360733     65.611053      2.706815      0.045764      0.153193
    4016.4003     90.643921     65.077377      2.693471      0.040029      0.150353
    4016.3003     88.108597     64.741379      2.685824      0.038286      0.143249
    4016.2003     87.932968     64.656891      2.687400      0.042568      0.135459
    4016.1003     88.810974     64.673370      2.696909      0.053091      0.132116
    4016.0003     88.385376     64.682724      2.704112      0.060494      0.132782
    4015.9003     85.975800     64.569901      2.699497      0.051504      0.135874
    4015.8003     83.915466     64.272003      2.684167      0.024477      0.138401
    4015.7003     82.650146     63.888313      2.668797      0.002654      0.137320
    4015.6003     82.305557     63.664818      2.662395      0.000343      0.131684
    4015.5003     82.632812     63.834129      2.662338      0.000300      0.126162
    4015.4003     82.577911     64.057709      2.662359      0.000305      0.121900
    4015.3003     81.646896     64.072250      2.658598      0.000245      0.119868
    4015.2003     81.709213     64.241272      2.658422      0.001273      0.120498
    4015.1003     83.558014     64.571762      2.661385      0.009548      0.123243
    4015.0003     87.444046     64.984940      2.664804      0.022058      0.126363
    4014.9003     91.747772     65.415527      2.665746      0.016225      0.128540
    4014.8003     96.013748     65.888336      2.659978      0.002171      0.129771
    4014.7003     98.870987     66.319489      2.648266      0.000120      0.130809
    4014.6003     99.043472     66.445389      2.642558      0.000225      0.132497
    4014.5003     96.809082     65.987732      2.642775      0.000986      0.135119
    4014.4003     94.372253     65.016129      2.648527      0.002338      0.137857
    4014.3003     91.759506     64.086884      2.676483      0.004351      0.139022
    4014.2003     88.214966     63.377144      2.713330      0.015461      0.135553
    4014.1003     83.521469     62.787003      2.723933      0.039207      0.126781
    4014.0003     80.428772     62.605392      2.717741      0.052906      0.117511
    4013.9003     80.665588     63.181328      2.704572      0.050917      0.111894
    4013.8003     83.081116     64.352585      2.696726      0.051292      0.111150
    4013.7003     87.802551     65.640350      2.691029      0.050200      0.115737
    4013.6003     94.119247     66.701813      2.686822      0.046011      0.124322
    4013.5003    100.280472     67.717239      2.686849      0.043077      0.133417
    4013.4003    104.549423     68.431549      2.692466      0.045157      0.143678
    4013.3003    105.762344     68.597305      2.692148      0.042846      0.154233
    4013.2003    105.230133     68.277374      2.673161      0.021412      0.163087
    4013.1003    103.800354     67.633331      2.661500      0.002198      0.170019
    4013.0003    102.009872     67.106033      2.674160      0.000528      0.173673
    4012.9003     99.670044     66.922546      2.689744      0.003129      0.172225
    4012.8003     99.315842     66.850388      2.698310      0.012536      0.167466
    4012.7003    101.753845     66.680496      2.695745      0.025217      0.163331
    4012.6003    103.562347     66.607132      2.689094      0.028932      0.161226
    4012.5003    102.833572     66.588043      2.685251      0.021625      0.160930
    4012.4003     99.689377     66.407806      2.688068      0.014813      0.160140
    4012.3003     96.259415     65.947128      2.693338      0.021383      0.156528
    4012.2003     94.435928     65.425934      2.695722      0.034574      0.149946
    4012.1003     94.845459     65.283035      2.693878      0.041115      0.142385
    4012.0003     97.042175     65.797028      2.690529      0.041504      0.136218
    4011.9003    100.822968     66.871704      2.683450      0.038917      0.133099
    4011.8003    105.830124     68.112991      2.671215      0.032760      0.134766
    4011.7003    111.083664     69.140640      2.660095      0.019771      0.143674
    4011.6003    114.876022     69.475388      2.657196      0.006850      0.158572
    4011.5003    114.381439     68.874710      2.666221      0.002129      0.172817
    4011.4003    107.999191     67.598297      2.684046      0.001326      0.179396
    4011.3003     98.771957     66.023605      2.700601      0.000734      0.175875
    4011.2003     91.456985     64.636093      2.705460      0.000447      0.165137
    4011.1003     87.375351     63.957718      2.696370      0.000360      0.151375
    4011.0003     86.580948     64.155106      2.678435      0.000285      0.138645
    4010.9003     88.843842     65.063782      2.659535      0.000221      0.130409
    4010.8003     93.483231     66.409790      2.647184      0.000166      0.129448
    4010.7003     99.479340     67.716873      2.646851      0.000132      0.135317
    4010.6003    104.684769     68.396393      2.655529      0.000396      0.145064
    4010.5003    105.600647     68.024490      2.664867      0.002871      0.156295
    4010.4003    100.222580     66.700287      2.674089      0.011272      0.166776
    4010.3003     89.642853     64.896683      2.685574      0.025298      0.172153
    4010.2003     77.344894     63.070961      2.694314      0.038240      0.166910
    4010.1003     67.656769     61.655754      2.696931      0.044800      0.150606
    4010.0003     62.605553     60.957573      2.694626      0.041751      0.130410
    4009.9003     60.865883     60.983376      2.689153      0.027718      0.114868
    4009.8003     60.977104     61.525902      2.685677      0.011023      0.105876
    4009.7003     62.462723     62.323883      2.687106      0.002127      0.099957
    4009.6003     64.621735     63.143715      2.687773      0.001626      0.095737
    4009.5003     66.694183     63.768501      2.682999      0.007261      0.093681
    4009.4003     68.705536     64.136078      2.675141      0.014663      0.093596
    4009.3003     71.489609     64.375931      2.667334      0.014704      0.094785
