# LAS format data
~Version Information
VERS.     2.00: CWLS LOG ASCII STANDARD - VERSION 2.0
WRAP.       NO: ONE LINE PER DEPTH STEP
~Well Information
#MNEM   .UNITS    DATA                           DESCRIPTION
#----   ------    ----                           -----------
STRT    .M        4182.0000                     :First Index Value
STOP    .M        48.1000                       :Last Index Value
STEP    .M        -0.1000                       :Frame Spacing
NULL    .         -999.2500                     :Absent Value
WELL    .         L07-04                        :Well Name   
FLD     .         UNKNOWN                       :Field Name  
CNTY    .                                       :County
STAT    .                                       :State
CTRY    .                                       :Country
LOC     .                                       :Location
API     .                                       :API Number
DATE    .                                       :Date
COMP    .         PETROLAND                     :Company Name
SRVC    .                                       :Service Company
~Parameter Information
#MNEM   .UNITS    VALUE                          DESCRIPTION
#----   ------    -----                          -----------
TDD     .M        4182.00000                    :Total Depth (Driller)   
UBID    .         7265                          :Unique Borehole Id  
PDAT    .         Mean Sea Level                :Permanent Datum 
EPD     .M           0.00000                    :Elevation of Permanent Datum (PDAT) above Mean Sea Level
LMF     .         Rotary Table                  :Logging Measured From (Name of Logging Elevation Reference) 
APD     .M          30.50000                    :Elevation of Depth Reference (LMF) Above Permanent Datum
EGL     .M         -34.30000                    :Elevation of Ground Level Above Mean Sea Level  
~Curve Information
#MNEM   .UNITS    API CODE                       CURVE DESCRIPTION
#----   ------    --------                       -----------------
DEPT    .M                                      :1     Index curve
GR      .GAPI                                   :2     L07-04
DT      .US/F                                   :3     L07-04
RHOB    .G/C3                                   :4     L07-04
DRHO    .G/C3                                   :5     L07-04
NPHI    .V/V                                    :6     L07-04
~Ascii Log Data
# ...
    4153.2000     23.631290     69.636826      2.466221      0.040364      0.152533
    4153.1000     23.638123     69.843643      2.457398      0.023703      0.151763
    4153.0000     22.979385     69.899536      2.449430      0.007301      0.149120
    4152.9000     21.617287     69.635162      2.453417      0.007478      0.143701
    4152.8000     20.671932     69.260651      2.470676      0.020287      0.139513
    4152.7000     20.072491     68.743088      2.488850      0.026994      0.136379
    4152.6000     19.130363     67.948807      2.494731      0.013831      0.132363
    4152.5000     17.998264     67.193665      2.493979      0.003156      0.129553
    4152.4000     17.337978     66.746490      2.495219      0.011514      0.130758
    4152.3000     17.775536     66.596054      2.500156      0.030184      0.135818
    4152.2000     19.428112     66.807388      2.506180      0.045510      0.140342
    4152.1000     21.588535     67.340714      2.513539      0.057049      0.143769
    4152.0000     22.022949     67.744522      2.519051      0.066890      0.146313
    4151.9000     21.891972     68.197449      2.514627      0.069672      0.148885
    4151.8000     21.569702     68.662781      2.501837      0.065012      0.150981
    4151.7000     22.055687     68.896881      2.498703      0.061621      0.151344
    4151.6000     22.619564     68.832428      2.490159      0.043419      0.150114
    4151.5000     22.942444     68.520065      2.471150      0.011087      0.147880
    4151.4000     23.076538     68.478592      2.457482      0.001984      0.147478
    4151.3000     23.124222     68.552216      2.452828      0.009822      0.147791
    4151.2000     23.110897     68.572540      2.457035      0.019467      0.147607
    4151.1000     23.110123     68.624084      2.460430      0.014982      0.146798
    4151.0000     23.470608     68.958008      2.466030      0.013818      0.145470
    4150.9000     24.114902     69.388519      2.478773      0.029131      0.143578
    4150.8000     24.239388     69.211044      2.493038      0.037692      0.140899
    4150.7000     23.403206     68.477097      2.499917      0.030234      0.138828
    4150.6000     21.914715     67.768799      2.494108      0.010415      0.139282
    4150.5000     20.929909     67.438522      2.489656      0.002764      0.141605
    4150.4000     21.047546     67.631653      2.485291      0.012978      0.144614
    4150.3000     22.190590     68.044434      2.479808      0.030013      0.145304
    4150.2000     24.005554     68.420578      2.477138      0.037562      0.143036
    4150.1000     26.591934     68.574799      2.477761      0.026549      0.137485
    4150.0000     29.282284     68.403793      2.481737      0.009089      0.131938
    4149.9000     31.458279     67.991394      2.495258      0.003401      0.127134
    4149.8000     32.651947     67.460770      2.516849      0.012229      0.122569
    4149.7000     32.987961     66.860626      2.539975      0.027962      0.117736
    4149.6000     33.047432     66.213409      2.556214      0.040653      0.113489
    4149.5000     32.656952     65.764740      2.558816      0.044655      0.110885
    4149.4000     31.493927     65.677673      2.547194      0.039575      0.110676
    4149.3000     30.364452     65.790283      2.526613      0.026397      0.113601
    4149.2000     29.971111     66.017609      2.509752      0.017384      0.119375
    4149.1000     30.556019     66.535995      2.504236      0.020158      0.126290
    4149.0000     32.513809     67.301651      2.506742      0.020186      0.130735
    4148.9000     35.276123     67.988403      2.515508      0.015802      0.131266
    4148.8000     37.721863     68.208939      2.533275      0.023677      0.129897
    4148.7000     38.975113     67.772202      2.547920      0.032583      0.127225
    4148.6000     38.601189     66.878372      2.551773      0.027167      0.124173
    4148.5000     37.257225     65.911957      2.551819      0.014098      0.120898
    4148.4000     36.254417     65.201675      2.548499      0.006719      0.117104
    4148.3000     36.201012     64.899414      2.543489      0.011608      0.113184
    4148.2000     36.773926     64.935242      2.542640      0.024025      0.109638
    4148.1000     37.372116     65.068069      2.548785      0.034368      0.105798
    4148.0000     37.439758     65.027496      2.557096      0.038916      0.101297
    4147.9000     36.713333     64.714905      2.560999      0.040152      0.097213
    4147.8000     35.482445     64.317032      2.560440      0.038252      0.095243
    4147.7000     34.447197     64.092545      2.554257      0.030446      0.096943
    4147.6000     34.223480     64.109055      2.539792      0.017491      0.101965
    4147.5000     34.829521     64.232437      2.525004      0.005941      0.107421
    4147.4000     35.985069     64.321472      2.519619      0.000827      0.110967
    4147.3000     37.609055     64.319321      2.524014      0.000010      0.112814
    4147.2000     39.672188     64.200943      2.535784      0.000099      0.113630
    4147.1000     41.463661     64.031448      2.548610      0.000710      0.113714
    4147.0000     41.787727     63.974724      2.552590      0.004005      0.114395
    4146.9000     40.023567     64.189636      2.543394      0.012403      0.117862
    4146.8000     36.370361     64.802811      2.523589      0.024095      0.125235
    4146.7000     31.714561     65.833511      2.499630      0.034147      0.135517
    4146.6000     27.584587     67.046051      2.480051      0.039862      0.145731
    4146.5000     24.552486     68.235657      2.467155      0.042070      0.153328
    4146.4000     22.069160     69.399796      2.457012      0.041880      0.156977
    4146.3000     20.205906     70.401627      2.449663      0.038808      0.156187
    4146.2000     19.474514     70.875809      2.449379      0.030499      0.152352
    4146.1000     19.841923     70.629135      2.455688      0.017462      0.147728
    4146.0000     20.926682     69.893677      2.463589      0.007527      0.143057
    4145.9000     22.166866     69.012161      2.475958      0.010184      0.138815
    4145.8000     22.959366     68.179642      2.498690      0.025482      0.135887
    4145.7000     23.179523     67.403763      2.524858      0.044181      0.133974
    4145.6000     22.788635     66.735764      2.537243      0.056138      0.132758
    4145.5000     21.811958     66.398758      2.526743      0.057770      0.133258
    4145.4000     20.841125     66.661728      2.500139      0.052129      0.137046
    4145.3000     20.420410     67.455017      2.472848      0.045098      0.143514
    4145.2000     20.420364     68.357376      2.456730      0.041060      0.149428
    4145.1000     20.693432     69.246384      2.452300      0.039478      0.152773
    4145.0000     21.325249     70.215210      2.454698      0.039307      0.154165
    4144.9000     22.181133     70.956146      2.461394      0.043058      0.154866
    4144.8000     22.917179     71.083374      2.466512      0.049761      0.156152
    4144.7000     23.245720     70.749939      2.464257      0.052798      0.159046
    4144.6000     23.044437     70.558090      2.456771      0.048860      0.164197
    4144.5000     22.603180     71.081024      2.449216      0.045376      0.171602
    4144.4000     22.314758     72.342148      2.442743      0.048797      0.179595
    4144.3000     22.092766     73.769943      2.433742      0.050707      0.185740
    4144.2000     22.000359     74.754395      2.424701      0.046710      0.189012
    4144.1000     22.227398     74.987427      2.422376      0.043457      0.190130
    4144.0000     22.380985     74.594589      2.424417      0.044117      0.189387
    4143.9000     22.113991     73.912842      2.427292      0.044138      0.186429
    4143.8000     21.713684     73.335480      2.429848      0.036793      0.181957
    4143.7000     21.502533     72.917603      2.428814      0.022758      0.176839
