# LAS format data
~Version Information
VERS.     2.00: CWLS LOG ASCII STANDARD - VERSION 2.0
WRAP.       NO: ONE LINE PER DEPTH STEP
~Well Information
#MNEM   .UNITS    DATA                           DESCRIPTION
#----   ------    ----                           -----------
STRT    .M        4182.0000                     :First Index Value
STOP    .M        48.1000                       :Last Index Value
STEP    .M        -0.1000                       :Frame Spacing
NULL    .         -999.2500                     :Absent Value
WELL    .         L07-04                        :Well Name   
FLD     .         UNKNOWN                       :Field Name  
CNTY    .                                       :County
STAT    .                                       :State
CTRY    .                                       :Country
LOC     .                                       :Location
API     .                                       :API Number
DATE    .                                       :Date
COMP    .         PETROLAND                     :Company Name
SRVC    .                                       :Service Company
~Parameter Information
#MNEM   .UNITS    VALUE                          DESCRIPTION
#----   ------    -----                          -----------
TDD     .M        4182.00000                    :Total Depth (Driller)   
UBID    .         7265                          :Unique Borehole Id  
PDAT    .         Mean Sea Level                :Permanent Datum 
EPD     .M           0.00000                    :Elevation of Permanent Datum (PDAT) above Mean Sea Level
LMF     .         Rotary Table                  :Logging Measured From (Name of Logging Elevation Reference) 
APD     .M          30.50000                    :Elevation of Depth Reference (LMF) Above Permanent Datum
EGL     .M         -34.30000                    :Elevation of Ground Level Above Mean Sea Level  
~Curve Information
#MNEM   .UNITS    API CODE                       CURVE DESCRIPTION
#----   ------    --------                       -----------------
DEPT    .M                                      :1     Index curve
GR      .GAPI                                   :2     L07-04
DT      .US/F                                   :3     L07-04
RHOB    .G/C3                                   :4     L07-04
DRHO    .G/C3                                   :5     L07-04
NPHI    .V/V                                    :6     L07-04
~Ascii Log Data
# ...
    3846.0001    110.725861     70.323257      2.651765      0.000362      0.191762
    3845.9001    112.185349     70.356659      2.652545      0.000357      0.189446
    3845.8001    113.205673     70.109436      2.659876      0.000743      0.183772
    3845.7001    112.872864     69.914749      2.667093      0.003871      0.180549
    3845.6001    111.409256     69.815872      2.669287      0.015646      0.178222
    3845.5001    108.798264     69.846527      2.671588      0.033959      0.175601
    3845.4001    105.235153     69.975647      2.685455      0.047799      0.172174
    3845.3001    101.389297     70.126938      2.695893      0.057754      0.168736
    3845.2001     97.043961     70.046631      2.690753      0.058603      0.165503
    3845.1001     91.442017     69.438370      2.674778      0.045534      0.161343
    3845.0001     87.240372     68.454849      2.663599      0.036378      0.155339
    3844.9001     85.854736     67.363678      2.668986      0.042511      0.148299
    3844.8001     84.904846     66.353561      2.679436      0.049248      0.143038
    3844.7001     83.840363     65.483246      2.680117      0.048083      0.138738
    3844.6001     82.249893     64.862259      2.667039      0.039692      0.134927
    3844.5001     80.687759     64.684204      2.658670      0.038562      0.132767
    3844.4001     79.437653     64.726929      2.653302      0.040848      0.130045
    3844.3001     78.596298     64.687912      2.649430      0.040687      0.124939
    3844.2001     78.058990     64.651184      2.651544      0.039835      0.119512
    3844.1001     77.688004     64.726669      2.652455      0.037766      0.115301
    3844.0001     77.355331     64.888412      2.647216      0.036123      0.112771
    3843.9001     77.282455     64.909164      2.643903      0.039247      0.110997
    3843.8001     77.886292     64.702515      2.643289      0.045386      0.109017
    3843.7001     79.353516     64.384476      2.646166      0.049465      0.106541
    3843.6001     81.276749     64.150742      2.658107      0.051470      0.104342
    3843.5001     83.099777     64.068054      2.674198      0.054910      0.103104
    3843.4001     84.747650     64.073822      2.682476      0.058947      0.103401
    3843.3001     86.939301     64.127594      2.679410      0.056090      0.105476
    3843.2001     89.556625     64.294510      2.670414      0.049321      0.108548
    3843.1001     91.762405     64.615356      2.664610      0.047147      0.111317
    3843.0001     93.271606     64.963852      2.664033      0.048906      0.113510
    3842.9001     94.055054     65.221771      2.664908      0.051111      0.115597
    3842.8001     94.351395     65.431915      2.662549      0.052577      0.118345
    3842.7001     94.663498     65.718704      2.658817      0.055438      0.122136
    3842.6001     96.121811     66.030792      2.658088      0.058911      0.127073
    3842.5001    100.376724     66.144135      2.661689      0.060579      0.132309
    3842.4001    108.792511     65.933319      2.665375      0.060237      0.135895
    3842.3001    120.885086     65.478439      2.664583      0.056502      0.136391
    3842.2001    133.597534     65.002304      2.661100      0.049359      0.134782
    3842.1001    142.283752     64.859543      2.659405      0.044546      0.134435
    3842.0001    143.178894     65.660645      2.656275      0.048550      0.139461
    3841.9001    135.537628     67.701645      2.647560      0.059887      0.150928
    3841.8001    121.781113     70.294708      2.639424      0.068112      0.164320
    3841.7001    106.930786     72.326294      2.637269      0.064638      0.172552
    3841.6001     93.930313     73.134003      2.642307      0.053414      0.171022
    3841.5001     82.551865     72.506622      2.655374      0.045998      0.160738
    3841.4001     72.762421     70.326706      2.669526      0.045032      0.147847
    3841.3001     65.796783     66.987823      2.676413      0.040902      0.137284
    3841.2001     61.219589     63.782166      2.680205      0.028814      0.128710
    3841.1001     58.084221     61.607056      2.690264      0.020163      0.120362
    3841.0001     56.355743     60.361603      2.705970      0.024656      0.112052
    3840.9001     55.636887     59.543190      2.718784      0.031403      0.103574
    3840.8001     55.310997     58.888824      2.726595      0.027939      0.096060
    3840.7001     55.096901     58.370659      2.733167      0.020177      0.091343
    3840.6001     55.029625     57.960861      2.738707      0.021578      0.089121
    3840.5001     55.363640     57.619347      2.744251      0.033777      0.088042
    3840.4001     56.038002     57.329178      2.751436      0.047454      0.087403
    3840.3001     56.327232     57.092522      2.755440      0.057042      0.087030
    3840.2001     55.493866     56.929672      2.751887      0.061609      0.086735
    3840.1001     53.797394     56.807350      2.745200      0.061543      0.085253
    3840.0001     52.526360     56.547218      2.743688      0.060170      0.080020
    3839.9001     52.614120     55.918373      2.748120      0.060372      0.070309
    3839.8001     53.887680     54.913643      2.751226      0.060542      0.058906
    3839.7001     55.762611     53.889397      2.747209      0.057032      0.050010
    3839.6001     57.746338     53.261696      2.737547      0.050893      0.046016
    3839.5001     59.438759     53.146477      2.727297      0.044353      0.046223
    3839.4001     60.382294     53.428032      2.719868      0.033829      0.048517
    3839.3001     59.928932     53.954704      2.718560      0.023055      0.051076
    3839.2001     57.729866     54.597313      2.724689      0.023498      0.052940
    3839.1001     54.309700     55.192642      2.732326      0.031365      0.054012
    3839.0001     50.534180     55.535843      2.738335      0.036943      0.054775
    3838.9001     46.932190     55.464066      2.746864      0.039282      0.055487
    3838.8001     44.064682     54.958778      2.754977      0.033949      0.055173
    3838.7001     42.186005     54.178452      2.760585      0.023235      0.052639
    3838.6001     41.036263     53.296875      2.771782      0.020771      0.047921
    3838.5001     40.324669     52.377502      2.789410      0.022179      0.042255
    3838.4001     39.760910     51.436310      2.805147      0.017256      0.036516
    3838.3001     39.209152     50.612518      2.814507      0.016078      0.030485
    3838.2001     38.856560     49.948616      2.821979      0.018222      0.024341
    3838.1001     38.910645     49.359642      2.834140      0.016027      0.019114
    3838.0001     39.141457     48.829613      2.847115      0.021268      0.015724
    3837.9001     39.257248     48.401466      2.849728      0.034981      0.014179
    3837.8001     39.236961     48.102020      2.836727      0.039573      0.013723
    3837.7001     39.350868     47.899017      2.822038      0.029863      0.013917
    3837.6001     39.708168     47.769394      2.817437      0.020054      0.014661
    3837.5001     40.059258     47.682693      2.823521      0.028977      0.015860
    3837.4001     40.167053     47.539040      2.842772      0.048781      0.017154
    3837.3001     40.027771     47.408112      2.869026      0.065086      0.017928
    3837.2001     39.872902     47.552650      2.882098      0.071755      0.017748
    3837.1001     39.513603     47.859016      2.878919      0.063279      0.017062
    3837.0001     38.886826     48.110268      2.866427      0.043594      0.016858
    3836.9001     38.516090     48.276283      2.854826      0.031999      0.017930
    3836.8001     38.471504     48.413254      2.841276      0.023202      0.020470
    3836.7001     38.554024     48.604851      2.821043      0.009033      0.024841
    3836.6001     38.534309     48.849251      2.800367      0.001185      0.031352
    3836.5001     38.314148     49.142891      2.783949      0.000360      0.038746
