# LAS format data
~Version Information
VERS.     2.00: CWLS LOG ASCII STANDARD - VERSION 2.0
WRAP.       NO: ONE LINE PER DEPTH STEP
~Well Information
#MNEM   .UNITS    DATA                           DESCRIPTION
#----   ------    ----                           -----------
STRT    .M        4182.0000                     :First Index Value
STOP    .M        48.1000                       :Last Index Value
STEP    .M        -0.1000                       :Frame Spacing
NULL    .         -999.2500                     :Absent Value
WELL    .         L07-04                        :Well Name   
FLD     .         UNKNOWN                       :Field Name  
CNTY    .                                       :County
STAT    .                                       :State
CTRY    .                                       :Country
LOC     .                                       :Location
API     .                                       :API Number
DATE    .                                       :Date
COMP    .         PETROLAND                     :Company Name
SRVC    .                                       :Service Company
~Parameter Information
#MNEM   .UNITS    VALUE                          DESCRIPTION
#----   ------    -----                          -----------
TDD     .M        4182.00000                    :Total Depth (Driller)   
UBID    .         7265                          :Unique Borehole Id  
PDAT    .         Mean Sea Level                :Permanent Datum 
EPD     .M           0.00000                    :Elevation of Permanent Datum (PDAT) above Mean Sea Level
LMF     .         Rotary Table                  :Logging Measured From (Name of Logging Elevation Reference) 
APD     .M          30.50000                    :Elevation of Depth Reference (LMF) Above Permanent Datum
EGL     .M         -34.30000                    :Elevation of Ground Level Above Mean Sea Level  
~Curve Information
#MNEM   .UNITS    API CODE                       CURVE DESCRIPTION
#----   ------    --------                       -----------------
DEPT    .M                                      :1     Index curve
GR      .GAPI                                   :2     L07-04
DT      .US/F                                   :3     L07-04
RHOB    .G/C3                                   :4     L07-04
DRHO    .G/C3                                   :5     L07-04
NPHI    .V/V                                    :6     L07-04
~Ascii Log Data
# ...
    3884.4004    100.127136     68.906250      2.666459      0.000330      0.161109
    3884.3004     98.180771     68.308258      2.669468      0.000368      0.160609
    3884.2004     95.016235     67.416702      2.662128      0.000326      0.157848
    3884.1004     91.103271     66.513611      2.650455      0.000234      0.152815
    3884.0004     87.839767     65.818390      2.643863      0.000166      0.146425
    3883.9004     85.907959     65.339890      2.641681      0.000143      0.140391
    3883.8004     85.223526     65.032867      2.638935      0.000150      0.135999
    3883.7004     85.722839     64.929733      2.637303      0.000198      0.133280
    3883.6004     86.937210     64.966644      2.638363      0.000275      0.131266
    3883.5004     88.148727     65.041809      2.640038      0.000332      0.129215
    3883.4004     88.893066     65.125916      2.641909      0.000339      0.127197
    3883.3004     88.912582     65.159531      2.647366      0.000343      0.125625
    3883.2004     87.941177     65.065903      2.656593      0.000385      0.124712
    3883.1004     85.999771     64.872757      2.663108      0.000428      0.124129
    3883.0004     83.784256     64.693924      2.662817      0.000426      0.122982
    3882.9004     82.036270     64.620712      2.658741      0.000402      0.120891
    3882.8004     80.785583     64.624557      2.656477      0.000403      0.118485
    3882.7004     79.504883     64.542587      2.659726      0.000431      0.116201
    3882.6004     77.767838     64.328247      2.666587      0.000445      0.113898
    3882.5004     75.599930     64.171097      2.671474      0.000426      0.111518
    3882.4004     73.851379     64.232193      2.672289      0.000395      0.109281
    3882.3004     74.632477     64.498367      2.669944      0.000369      0.107574
    3882.2004     79.957794     64.903015      2.664708      0.000343      0.106876
    3882.1004     88.948135     65.378342      2.659275      0.000817      0.107911
    3882.0004     97.897339     65.817627      2.657172      0.004444      0.110973
    3881.9004    103.773331     66.099335      2.657735      0.012986      0.115332
    3881.8004    105.894318     66.130798      2.659551      0.019003      0.119588
    3881.7004    105.097946     65.928619      2.661956      0.017646      0.122592
    3881.6004    101.907440     65.587585      2.662241      0.017970      0.123788
    3881.5004     97.496735     65.205948      2.658380      0.020366      0.123465
    3881.4004     93.765747     64.871582      2.653308      0.014885      0.122672
    3881.3004     91.658951     64.718445      2.652770      0.005460      0.122503
    3881.2004     90.824127     64.833862      2.656983      0.000988      0.123761
    3881.1004     90.660263     65.164886      2.660559      0.000344      0.126444
    3881.0004     91.265152     65.562744      2.661307      0.000367      0.129337
    3880.9004     92.584824     65.869339      2.658751      0.000339      0.131562
    3880.8004     93.793869     66.012741      2.652521      0.000297      0.133362
    3880.7004     94.098846     66.077988      2.648385      0.000287      0.134822
    3880.6004     93.214111     66.116837      2.652425      0.000322      0.135502
    3880.5004     91.429276     66.053665      2.663155      0.002025      0.135061
    3880.4004     89.566696     65.935257      2.674304      0.009856      0.133956
    3880.3004     88.157822     65.867828      2.680290      0.022567      0.132931
    3880.2004     86.874954     65.839035      2.681322      0.030786      0.132137
    3880.1004     85.705078     65.818649      2.682202      0.032748      0.131593
    3880.0004     85.097198     65.797455      2.686491      0.030450      0.131719
    3879.9004     85.293503     65.761337      2.687877      0.020287      0.133130
    3879.8004     85.821884     65.672440      2.676415      0.007270      0.135207
    3879.7004     86.012589     65.543198      2.654003      0.001476      0.136527
    3879.6004     86.290848     65.527023      2.643544      0.000412      0.136965
    3879.5004     87.334778     65.732346      2.649556      0.000235      0.137324
    3879.4004     89.366974     66.119431      2.654058      0.000155      0.138571
    3879.3004     91.761597     66.542175      2.654297      0.000133      0.140512
    3879.2004     93.496918     66.787811      2.655466      0.000292      0.142397
    3879.1004     94.022598     66.667755      2.662826      0.002726      0.142984
    3879.0004     94.749802     66.248535      2.673526      0.012983      0.141277
    3878.9004     96.339066     65.827621      2.681599      0.028635      0.137729
    3878.8004     97.035233     65.800797      2.683093      0.034246      0.135552
    3878.7004     96.485092     65.854935      2.685041      0.035842      0.135672
    3878.6004     94.655090     65.684174      2.692533      0.042109      0.138098
    3878.5004     92.129883     65.590378      2.695111      0.046902      0.141114
    3878.4004     90.156128     65.600052      2.685817      0.038096      0.143319
    3878.3004     89.988571     65.694778      2.667106      0.012710      0.144273
    3878.2004     90.844986     65.882401      2.661381      0.000482      0.146329
    3878.1004     92.803299     66.096710      2.663332      0.000309      0.148770
    3878.0004     95.273102     66.155350      2.659420      0.000346      0.149782
    3877.9004     96.690903     66.000565      2.657369      0.000319      0.150206
    3877.8004     96.101074     65.744720      2.659124      0.000274      0.149270
    3877.7004     93.956406     65.657883      2.663963      0.000420      0.145966
    3877.6004     92.579376     65.671921      2.672418      0.002125      0.140961
    3877.5004     93.122574     65.750305      2.684139      0.012483      0.135837
    3877.4004     94.898209     65.835770      2.694417      0.034106      0.133645
    3877.3004     96.148956     65.943176      2.699011      0.047719      0.133760
    3877.2004     96.009430     65.988419      2.691115      0.038951      0.135991
    3877.1004     95.486374     65.896713      2.673116      0.016527      0.139004
    3877.0004     95.200699     65.917099      2.662762      0.000267      0.140897
    3876.9004     95.508286     66.124496      2.667328      0.000316      0.140597
    3876.8004     95.782730     66.236847      2.668132      0.000351      0.139930
    3876.7004     95.297089     66.245132      2.662375      0.000391      0.139449
    3876.6004     93.655792     66.113052      2.652802      0.000679      0.138694
    3876.5004     91.611649     65.846451      2.649411      0.001354      0.136149
    3876.4004     89.554901     65.620407      2.650788      0.001415      0.133798
    3876.3004     88.301758     65.634201      2.652937      0.000594      0.133401
    3876.2004     88.301651     65.837524      2.652045      0.000421      0.133778
    3876.1004     89.122772     66.073456      2.644234      0.001120      0.134656
    3876.0004     89.760269     66.154083      2.634455      0.001795      0.136047
    3875.9004     89.635284     66.138855      2.634684      0.001293      0.138209
    3875.8004     88.000122     66.130676      2.639978      0.000400      0.139553
    3875.7004     85.811127     66.252686      2.641721      0.000239      0.139086
    3875.6004     85.573441     66.592758      2.644341      0.000231      0.138864
    3875.5004     87.682541     67.311020      2.648036      0.000222      0.140592
    3875.4004     91.296448     68.207382      2.650786      0.000562      0.144497
    3875.3004     96.224442     68.621277      2.653282      0.003323      0.149019
    3875.2004    100.821060     68.381149      2.658930      0.011644      0.153106
    3875.1004    103.211914     67.701340      2.667048      0.020235      0.155847
    3875.0004    103.020447     66.629807      2.671062      0.016461      0.155293
    3874.9004    100.548767     65.487961      2.673764      0.006123      0.150372
