# LAS format data
~Version Information
VERS.     2.00: CWLS LOG ASCII STANDARD - VERSION 2.0
WRAP.       NO: ONE LINE PER DEPTH STEP
~Well Information
#MNEM   .UNITS    DATA                           DESCRIPTION
#----   ------    ----                           -----------
STRT    .M        4182.0000                     :First Index Value
STOP    .M        48.1000                       :Last Index Value
STEP    .M        -0.1000                       :Frame Spacing
NULL    .         -999.2500                     :Absent Value
WELL    .         L07-04                        :Well Name   
FLD     .         UNKNOWN                       :Field Name  
CNTY    .                                       :County
STAT    .                                       :State
CTRY    .                                       :Country
LOC     .                                       :Location
API     .                                       :API Number
DATE    .                                       :Date
COMP    .         PETROLAND                     :Company Name
SRVC    .                                       :Service Company
~Parameter Information
#MNEM   .UNITS    VALUE                          DESCRIPTION
#----   ------    -----                          -----------
TDD     .M        4182.00000                    :Total Depth (Driller)   
UBID    .         7265                          :Unique Borehole Id  
PDAT    .         Mean Sea Level                :Permanent Datum 
EPD     .M           0.00000                    :Elevation of Permanent Datum (PDAT) above Mean Sea Level
LMF     .         Rotary Table                  :Logging Measured From (Name of Logging Elevation Reference) 
APD     .M          30.50000                    :Elevation of Depth Reference (LMF) Above Permanent Datum
EGL     .M         -34.30000                    :Elevation of Ground Level Above Mean Sea Level  
~Curve Information
#MNEM   .UNITS    API CODE                       CURVE DESCRIPTION
#----   ------    --------                       -----------------
DEPT    .M                                      :1     Index curve
GR      .GAPI                                   :2     L07-04
DT      .US/F                                   :3     L07-04
RHOB    .G/C3                                   :4     L07-04
DRHO    .G/C3                                   :5     L07-04
NPHI    .V/V                                    :6     L07-04
~Ascii Log Data
# ...
    3951.6000     67.223206     64.460663      2.687448      0.073115      0.125682
    3951.5000     67.889191     64.788559      2.685533      0.070561      0.116162
    3951.4000     74.550354     65.583847      2.683778      0.067319      0.110892
    3951.3000     84.625351     66.694656      2.675924      0.067433      0.110764
    3951.2000     90.483963     67.501511      2.675106      0.063849      0.115422
    3951.1000     91.967819     67.852814      2.679284      0.055569      0.124856
    3951.0000     92.493637     67.791840      2.681111      0.047233      0.136005
    3950.9000     90.310287     67.107727      2.687036      0.045158      0.143236
    3950.8000     85.218613     65.887161      2.696008      0.046350      0.144045
    3950.7000     79.495758     64.813354      2.699968      0.042914      0.139979
    3950.6000     73.333054     64.127106      2.697680      0.042932      0.132254
    3950.5000     67.470581     63.821846      2.685795      0.046516      0.122446
    3950.4000     63.549011     63.571564      2.667853      0.045189      0.114053
    3950.3000     61.938957     63.467255      2.658058      0.040353      0.107834
    3950.2000     62.757439     63.608749      2.659895      0.035003      0.104662
    3950.1000     64.909546     63.912308      2.659097      0.033532      0.104681
    3950.0000     67.579010     64.142593      2.654556      0.034111      0.106692
    3949.9000     70.326706     64.389191      2.649082      0.029372      0.108988
    3949.8000     73.610031     65.007141      2.647567      0.014265      0.110520
    3949.7000     77.128906     65.523560      2.645314      0.001823      0.112046
    3949.6000     80.174286     65.689133      2.641913      0.000237      0.114428
    3949.5000     82.082611     65.886887      2.642700      0.000194      0.117868
    3949.4000     82.246063     66.004242      2.643165      0.000223      0.122110
    3949.3000     81.179123     65.803513      2.641151      0.000205      0.125478
    3949.2000     80.728500     65.281738      2.642468      0.000193      0.126497
    3949.1000     81.564987     64.743851      2.648411      0.000194      0.126052
    3949.0000     83.169327     64.555389      2.657708      0.000598      0.125634
    3948.9000     84.727859     64.704163      2.668141      0.003906      0.125505
    3948.8000     86.661652     65.078598      2.674189      0.014117      0.126103
    3948.7000     89.445435     65.580109      2.671306      0.028184      0.127730
    3948.6000     92.548935     66.245422      2.662289      0.034240      0.130107
    3948.5000     95.402664     66.849731      2.656068      0.025853      0.132437
    3948.4000     97.324387     66.985657      2.657073      0.011157      0.134507
    3948.3000     96.718277     66.399139      2.659446      0.005025      0.136917
    3948.2000     91.771149     65.243774      2.661697      0.012645      0.138906
    3948.1000     83.209549     64.076736      2.664608      0.025989      0.138178
    3948.0000     74.705933     63.390251      2.665411      0.035984      0.133003
    3947.9000     69.020782     63.244308      2.662775      0.039200      0.124625
    3947.8000     66.548462     63.429703      2.656366      0.035004      0.115547
    3947.7000     67.109909     63.863510      2.648061      0.024733      0.107284
    3947.6000     70.162033     64.427048      2.646376      0.020446      0.101774
    3947.5000     74.085846     64.976410      2.654532      0.028975      0.101053
    3947.4000     76.410187     65.383774      2.662925      0.037853      0.105067
    3947.3000     76.506012     65.538528      2.663076      0.033111      0.110469
    3947.2000     75.964935     65.453659      2.654190      0.017597      0.113949
    3947.1000     76.199875     65.419357      2.639875      0.004992      0.115298
    3947.0000     77.131500     65.862976      2.627494      0.000712      0.115968
    3946.9000     78.159775     66.745804      2.621010      0.000187      0.116863
    3946.8000     79.675659     67.514252      2.618236      0.000178      0.118254
    3946.7000     82.584351     67.922165      2.619777      0.001073      0.121133
    3946.6000     86.497971     68.108704      2.627889      0.006346      0.127650
    3946.5000     89.625488     68.098724      2.639027      0.016654      0.138572
    3946.4000     90.938156     67.791412      2.648225      0.022864      0.150470
    3946.3000     90.928925     67.150940      2.653331      0.021976      0.158483
    3946.2000     90.431885     66.310547      2.655863      0.026266      0.161022
    3946.1000     89.402069     65.560349      2.661434      0.036850      0.158941
    3946.0000     87.785904     65.103012      2.671188      0.039216      0.153591
    3945.9000     86.530502     65.025818      2.676297      0.027287      0.146197
    3945.8000     86.636002     65.687943      2.669440      0.011999      0.137692
    3945.7000     88.091721     67.435730      2.655959      0.007249      0.129413
    3945.6000     90.467865     69.972061      2.645796      0.014089      0.123858
    3945.5000     93.911224     72.349976      2.638122      0.019547      0.123512
    3945.4000     99.132965     73.842041      2.627068      0.014460      0.129624
    3945.3000    106.308640     74.435074      2.616649      0.007953      0.143076
    3945.2000    114.357361     74.285553      2.611337      0.013467      0.164957
    3945.1000    121.324326     73.443619      2.599895      0.030618      0.193786
    3945.0000    125.308746     72.192627      2.562611      0.044567      0.222228
    3944.9000    125.923141     70.793381      2.501710      0.042067      0.242665
    3944.8000    123.725021     69.410736      2.441267      0.025114      0.249791
    3944.7000    118.840363     68.363770      2.397171      0.008842      0.240838
    3944.6000    111.242035     67.912811      2.376904      0.002275      0.220049
    3944.5000    101.753418     68.005722      2.385971      0.001055      0.197738
    3944.4000     90.875275     68.490265      2.419078      0.000564      0.177535
    3944.3000     79.211426     69.304398      2.461496      0.000315      0.158470
    3944.2000     67.828201     70.314896      2.496515      0.002306      0.141972
    3944.1000     56.475693     71.220688      2.515673      0.011523      0.129763
    3944.0000     45.853043     71.741058      2.516843      0.026919      0.121785
    3943.9000     38.681709     71.950729      2.504803      0.038256      0.116411
    3943.8000     35.714081     72.214767      2.491504      0.042166      0.112888
    3943.7000     35.205338     72.645554      2.485102      0.041809      0.111068
    3943.6000     35.434090     72.873337      2.479972      0.037609      0.110587
    3943.5000     35.915909     72.881668      2.470341      0.027069      0.110799
    3943.4000     36.927307     72.905777      2.458632      0.012640      0.111175
    3943.3000     39.357849     72.907593      2.454168      0.004850      0.112012
    3943.2000     45.038185     73.061584      2.466650      0.012925      0.113682
    3943.1000     53.863518     73.516769      2.498271      0.036996      0.117026
    3943.0000     62.299545     73.904221      2.538925      0.067566      0.123703
    3942.9000     69.223740     74.352936      2.569253      0.091994      0.132836
    3942.8000     75.523315     75.478256      2.571436      0.099064      0.140248
    3942.7000     78.894547     77.402924      2.553007      0.090217      0.144776
    3942.6000     75.858093     79.859711      2.527720      0.076450      0.146926
    3942.5000     66.914642     82.337006      2.503602      0.070972      0.148276
    3942.4000     55.828011     84.438751      2.475868      0.068586      0.148402
    3942.3000     46.203194     85.316360      2.446666      0.062107      0.147166
    3942.2000     38.037674     84.484009      2.431921      0.054495      0.146097
    3942.1000     33.036011     82.371307      2.446021      0.054004      0.145190
