# LAS format data
~Version Information
VERS.     2.00: CWLS LOG ASCII STANDARD - VERSION 2.0
WRAP.       NO: ONE LINE PER DEPTH STEP
~Well Information
#MNEM   .UNITS    DATA                           DESCRIPTION
#----   ------    ----                           -----------
STRT    .M        4182.0000                     :First Index Value
STOP    .M        48.1000                       :Last Index Value
STEP    .M        -0.1000                       :Frame Spacing
NULL    .         -999.2500                     :Absent Value
WELL    .         L07-04                        :Well Name   
FLD     .         UNKNOWN                       :Field Name  
CNTY    .                                       :County
STAT    .                                       :State
CTRY    .                                       :Country
LOC     .                                       :Location
API     .                                       :API Number
DATE    .                                       :Date
COMP    .         PETROLAND                     :Company Name
SRVC    .                                       :Service Company
~Parameter Information
#MNEM   .UNITS    VALUE                          DESCRIPTION
#----   ------    -----                          -----------
TDD     .M        4182.00000                    :Total Depth (Driller)   
UBID    .         7265                          :Unique Borehole Id  
PDAT    .         Mean Sea Level                :Permanent Datum 
EPD     .M           0.00000                    :Elevation of Permanent Datum (PDAT) above Mean Sea Level
LMF     .         Rotary Table                  :Logging Measured From (Name of Logging Elevation Reference) 
APD     .M          30.50000                    :Elevation of Depth Reference (LMF) Above Permanent Datum
EGL     .M         -34.30000                    :Elevation of Ground Level Above Mean Sea Level  
~Curve Information
#MNEM   .UNITS    API CODE                       CURVE DESCRIPTION
#----   ------    --------                       -----------------
DEPT    .M                                      :1     Index curve
GR      .GAPI                                   :2     L07-04
DT      .US/F                                   :3     L07-04
RHOB    .G/C3                                   :4     L07-04
DRHO    .G/C3                                   :5     L07-04
NPHI    .V/V                                    :6     L07-04
~Ascii Log Data
# ...
    3750.0000     24.698215     69.778992      2.040026      0.050763     -0.012549
    3749.9000     25.260967     69.459412      2.050915      0.058373     -0.012620
    3749.8000     25.475811     69.249557      2.057123      0.059687     -0.012489
    3749.7000     25.472542     69.148712      2.060338      0.056277     -0.012162
    3749.6000     25.027870     69.158218      2.056485      0.050019     -0.011989
    3749.5000     24.297508     69.202545      2.047342      0.043852     -0.012193
    3749.4000     23.975410     69.217789      2.041662      0.039274     -0.012439
    3749.3000     24.423721     69.270279      2.040142      0.037085     -0.012326
    3749.2000     25.552540     69.322906      2.040086      0.037372     -0.011931
    3749.1000     26.899490     69.250290      2.039591      0.039208     -0.011919
    3749.0000     28.307655     69.238007      2.039156      0.038921     -0.012268
    3748.9000     29.741810     69.387466      2.038880      0.031883     -0.012743
    3748.8000     31.223770     69.431747      2.038509      0.021031     -0.013402
    3748.7000     33.175438     69.248352      2.041946      0.020342     -0.014241
    3748.6000     36.059166     68.980286      2.051911      0.034420     -0.015053
    3748.5000     40.004547     68.878387      2.065301      0.048967     -0.015513
    3748.4000     45.592796     68.970245      2.078057      0.059714     -0.015561
    3748.3000     54.470840     69.071686      2.084331      0.065363     -0.015242
    3748.2000     68.426544     69.068665      2.080199      0.060103     -0.014529
    3748.1000     85.223938     69.097931      2.068316      0.048921     -0.013616
    3748.0000     99.478348     69.488739      2.054781      0.043960     -0.012847
    3747.9000    109.054504     70.438278      2.044014      0.050554     -0.012343
    3747.8000    115.016281     71.741180      2.042549      0.066767     -0.012029
    3747.7000    119.341766     72.980072      2.050159      0.083535     -0.011798
    3747.6000    122.987671     73.933655      2.054749      0.090035     -0.011655
    3747.5000    126.598816     74.453751      2.047401      0.081946     -0.011603
    3747.4000    129.840424     74.544769      2.032833      0.068704     -0.011507
    3747.3000    130.704590     74.376450      2.023369      0.065683     -0.011216
    3747.2000    126.836609     74.249954      2.026983      0.078845     -0.010886
    3747.1000    116.589035     74.364395      2.041780      0.098968     -0.010899
    3747.0000    100.987610     74.617004      2.060549      0.112470     -0.011383
    3746.9000     84.302353     74.686005      2.076823      0.113646     -0.011887
    3746.8000     69.724365     74.262314      2.088463      0.105958     -0.011424
    3746.7000     57.075714     73.355606      2.096187      0.094775     -0.009264
    3746.6000     46.380203     72.367966      2.101029      0.083433     -0.005603
    3746.5000     39.053154     71.822342      2.102968      0.072590     -0.001023
    3746.4000     35.143478     72.028091      2.102786      0.062275      0.003940
    3746.3000     33.624451     73.006241      2.103219      0.053476      0.008366
    3746.2000     33.492157     74.455093      2.106423      0.048273      0.011357
    3746.1000     33.785187     75.783646      2.111951      0.048272      0.012938
    3746.0000     34.069138     76.482132      2.118949      0.052615      0.014022
    3745.9000     34.512756     76.533401      2.126567      0.057826      0.015648
    3745.8000     35.279900     76.315460      2.132384      0.060157      0.018558
    3745.7000     36.340790     76.113693      2.134347      0.059000      0.023213
    3745.6000     37.448700     75.880737      2.134957      0.058825      0.029027
    3745.5000     38.175934     75.670822      2.139157      0.064975      0.034025
    3745.4000     38.158592     76.123077      2.145071      0.075301      0.036188
    3745.3000     37.407043     77.569168      2.146159      0.082538      0.034987
    3745.2000     36.312286     79.152008      2.142081      0.084896      0.031885
    3745.1000     35.265343     79.848267      2.138099      0.086557      0.029546
    3745.0000     34.461563     79.575562      2.135716      0.088174      0.030684
    3744.9000     33.993141     78.922058      2.129907      0.083861      0.036648
    3744.8000     33.966301     78.416763      2.119494      0.073928      0.045304
    3744.7000     34.364746     78.285538      2.112003      0.068631      0.052312
    3744.6000     34.976547     78.661484      2.115304      0.074525      0.054970
    3744.5000     35.477158     79.523651      2.127531      0.084485      0.053676
    3744.4000     35.799324     80.570633      2.139999      0.088229      0.050496
    3744.3000     36.455994     81.343018      2.147517      0.087316      0.046702
    3744.2000     38.233032     81.531876      2.147598      0.085817      0.043259
    3744.1000     41.236717     81.141174      2.139923      0.081501      0.041260
    3744.0000     44.167831     80.379883      2.132680      0.076411      0.040712
    3743.9000     46.044144     79.593918      2.132496      0.075049      0.040975
    3743.8000     47.316551     79.144196      2.135342      0.077047      0.041796
    3743.7000     48.175514     79.163010      2.136797      0.079993      0.042450
    3743.6000     47.981773     79.424561      2.137044      0.081304      0.041442
    3743.5000     46.122917     79.593872      2.136514      0.078696      0.037228
    3743.4000     43.311218     79.677048      2.130315      0.072379      0.029507
    3743.3000     40.851158     79.761642      2.114915      0.064202      0.020233
    3743.2000     38.997215     79.536453      2.095701      0.055128      0.012483
    3743.1000     37.697075     78.617783      2.079690      0.046605      0.007980
    3743.0000     36.972374     77.092850      2.070101      0.037637      0.006241
    3742.9000     36.942154     75.699493      2.065660      0.025018      0.006592
    3742.8000     37.528442     74.847061      2.062737      0.017048      0.009089
    3742.7000     38.553719     74.359329      2.059720      0.025051      0.013809
    3742.6000     40.356567     74.263702      2.062736      0.037808      0.020072
    3742.5000     43.000954     75.054291      2.072520      0.046099      0.026500
    3742.4000     46.014557     76.929123      2.080229      0.053632      0.031369
    3742.3000     49.476471     78.568542      2.081690      0.059539      0.033451
    3742.2000     54.296257     79.313354      2.074621      0.059921      0.033103
    3742.1000     60.754875     80.282791      2.063437      0.056613      0.033367
    3742.0000     67.246689     81.306549      2.065568      0.066292      0.036839
    3741.9000     72.092834     81.833359      2.087625      0.091654      0.041483
    3741.8000     75.276245     81.851974      2.100096      0.097578      0.038201
    3741.7000     76.354279     81.655182      2.098407      0.088167      0.027878
    3741.6000     74.635880     81.229889      2.092467      0.082970      0.016210
    3741.5000     69.871826     79.779968      2.097838      0.089868      0.008095
    3741.4000     62.058708     77.615677      2.107699      0.104028      0.003157
    3741.3000     53.493462     75.666901      2.105870      0.110413     -0.001224
    3741.2000     46.470314     73.516617      2.098801      0.104731     -0.005550
    3741.1000     39.694908     71.472641      2.089635      0.090470     -0.009723
    3741.0000     31.498867     70.428329      2.083501      0.080696     -0.012926
    3740.9000     25.496819     69.871246      2.083106      0.076064     -0.015051
    3740.8000     22.621189     69.347076      2.084879      0.071865     -0.016007
    3740.7000     20.953819     68.539337      2.079422      0.059979     -0.016189
    3740.6000     20.226040     68.120102      2.070648      0.046241     -0.015728
    3740.5000     20.560383     68.336548      2.067388      0.038444     -0.014501
