# LAS format data
~Version Information
VERS.     2.00: CWLS LOG ASCII STANDARD - VERSION 2.0
WRAP.       NO: ONE LINE PER DEPTH STEP
~Well Information
#MNEM   .UNITS    DATA                           DESCRIPTION
#----   ------    ----                           -----------
STRT    .M        4182.0000                     :First Index Value
STOP    .M        48.1000                       :Last Index Value
STEP    .M        -0.1000                       :Frame Spacing
NULL    .         -999.2500                     :Absent Value
WELL    .         L07-04                        :Well Name   
FLD     .         UNKNOWN                       :Field Name  
CNTY    .                                       :County
STAT    .                                       :State
CTRY    .                                       :Country
LOC     .                                       :Location
API     .                                       :API Number
DATE    .                                       :Date
COMP    .         PETROLAND                     :Company Name
SRVC    .                                       :Service Company
~Parameter Information
#MNEM   .UNITS    VALUE                          DESCRIPTION
#----   ------    -----                          -----------
TDD     .M        4182.00000                    :Total Depth (Driller)   
UBID    .         7265                          :Unique Borehole Id  
PDAT    .         Mean Sea Level                :Permanent Datum 
EPD     .M           0.00000                    :Elevation of Permanent Datum (PDAT) above Mean Sea Level
LMF     .         Rotary Table                  :Logging Measured From (Name of Logging Elevation Reference) 
APD     .M          30.50000                    :Elevation of Depth Reference (LMF) Above Permanent Datum
EGL     .M         -34.30000                    :Elevation of Ground Level Above Mean Sea Level  
~Curve Information
#MNEM   .UNITS    API CODE                       CURVE DESCRIPTION
#----   ------    --------                       -----------------
DEPT    .M                                      :1     Index curve
GR      .GAPI                                   :2     L07-04
DT      .US/F                                   :3     L07-04
RHOB    .G/C3                                   :4     L07-04
DRHO    .G/C3                                   :5     L07-04
NPHI    .V/V                                    :6     L07-04
~Ascii Log Data
# ...
    3778.8003     27.092312     65.033325      2.329238      0.160141     -0.000713
    3778.7003     25.968189     64.933075      2.340286      0.166569     -0.001938
    3778.6003     25.126965     64.911392      2.360349      0.173315     -0.003014
    3778.5003     24.503696     64.878357      2.382426      0.175899     -0.003865
    3778.4003     24.064884     64.865417      2.390339      0.169756     -0.004858
    3778.3003     23.720539     64.962524      2.363753      0.153052     -0.006143
    3778.2003     23.412434     65.281326      2.304945      0.130193     -0.007455
    3778.1003     23.288002     65.881058      2.244725      0.109975     -0.008573
    3778.0003     23.703999     66.546722      2.203973      0.097692     -0.009484
    3777.9003     24.835423     67.041321      2.177638      0.090483     -0.010268
    3777.8003     26.365337     67.418671      2.158111      0.082762     -0.010989
    3777.7003     27.907658     67.784073      2.140679      0.071778     -0.011873
    3777.6003     29.587406     68.096024      2.121338      0.059121     -0.012945
    3777.5003     32.244026     68.248627      2.101738      0.049381     -0.013662
    3777.4003     37.246025     68.165604      2.087349      0.046210     -0.013640
    3777.3003     44.784981     67.907898      2.079547      0.050487     -0.012889
    3777.2003     52.838638     67.634140      2.074719      0.060202     -0.011390
    3777.1003     59.470497     67.282135      2.077044      0.071922     -0.009012
    3777.0003     63.899284     66.741760      2.102029      0.083565     -0.005612
    3776.9003     65.732742     66.170822      2.157531      0.093103     -0.001266
    3776.8003     65.164764     65.636124      2.223768      0.092913      0.003188
    3776.7003     63.121475     65.125992      2.270820      0.081809      0.006570
    3776.6003     60.405197     64.886780      2.291663      0.074957      0.008366
    3776.5003     57.756592     64.991364      2.293054      0.079469      0.008395
    3776.4003     55.923981     65.183914      2.281885      0.085342      0.006900
    3776.3003     54.917015     65.394562      2.269504      0.088783      0.004951
    3776.2003     53.778923     65.590683      2.268992      0.094281      0.003535
    3776.1003     51.622055     65.603775      2.284444      0.102227      0.002837
    3776.0003     48.590042     65.476822      2.308338      0.108409      0.002721
    3775.9003     45.289909     65.372299      2.330012      0.108960      0.002955
    3775.8003     42.290840     65.350128      2.340773      0.104737      0.003072
    3775.7003     40.433189     65.453293      2.333043      0.102799      0.002487
    3775.6003     40.329376     65.580856      2.312284      0.109675      0.001222
    3775.5003     41.537682     65.531738      2.296182      0.122599      0.000026
    3775.4003     43.252541     65.427063      2.288759      0.131399     -0.000672
    3775.3003     44.817368     65.520966      2.284586      0.129769     -0.000923
    3775.2003     46.073708     65.766586      2.283913      0.123184     -0.000895
    3775.1003     47.031288     65.979355      2.287206      0.116783     -0.000653
    3775.0003     47.694809     66.022705      2.289722      0.112878     -0.000311
    3774.9003     48.111679     65.918762      2.284661      0.112552     -0.000074
    3774.8003     48.163246     65.808182      2.270562      0.112356      0.000004
    3774.7003     47.705017     65.760483      2.256749      0.110899      0.000106
    3774.6003     46.618027     65.644379      2.256767      0.116819      0.000425
    3774.5003     44.810684     65.539688      2.269565      0.129721      0.000923
    3774.4003     42.511444     65.706940      2.277644      0.137154      0.001284
    3774.3003     40.319168     66.090454      2.271739      0.134421      0.001114
    3774.2003     38.872253     66.344330      2.252434      0.123692      0.000147
    3774.1003     38.409798     66.209793      2.230372      0.111824     -0.001348
    3774.0000     39.176216     65.977081      2.216285      0.103069     -0.002735
    3773.9000     40.646561     65.942871      2.216259      0.098359     -0.003583
    3773.8000     41.279152     65.980057      2.223914      0.094822     -0.004160
    3773.7000     40.404922     65.973801      2.231262      0.094097     -0.004429
    3773.6000     38.104195     66.027954      2.235961      0.095344     -0.004625
    3773.5000     35.251892     66.392685      2.244153      0.090684     -0.005487
    3773.4000     32.555092     66.560272      2.241764      0.076836     -0.007018
    3773.3000     30.455208     66.196945      2.221866      0.059722     -0.008848
    3773.2000     28.547329     66.121338      2.209802      0.053563     -0.010689
    3773.1000     27.555691     66.299011      2.202553      0.055538     -0.011875
    3773.0000     28.019157     66.407639      2.187810      0.055334     -0.012151
    3772.9000     28.553154     66.726303      2.175982      0.056732     -0.012756
    3772.8000     28.544743     67.187576      2.162788      0.057302     -0.013484
    3772.7000     27.975662     67.483749      2.139432      0.052415     -0.013452
    3772.6000     27.378689     67.566986      2.125862      0.048133     -0.013070
    3772.5000     27.597057     67.455948      2.124558      0.046518     -0.012666
    3772.4000     29.526775     67.349533      2.120880      0.046055     -0.012603
    3772.3000     32.931526     67.371307      2.119981      0.047828     -0.012934
    3772.2000     36.894882     67.505051      2.125428      0.052742     -0.013289
    3772.1000     39.197258     67.547104      2.134748      0.059396     -0.012858
    3772.0000     40.563766     67.599060      2.143699      0.066664     -0.012038
    3771.9000     40.952660     67.648636      2.151547      0.073179     -0.011130
    3771.8000     39.273384     67.512131      2.160669      0.075904     -0.010372
    3771.7000     35.180458     67.243118      2.163906      0.070606     -0.010024
    3771.6000     29.410412     67.013763      2.166048      0.062470     -0.009985
    3771.5000     25.143250     67.033401      2.186869      0.068996     -0.009524
    3771.4000     22.910042     67.073730      2.205409      0.076884     -0.008882
    3771.3000     22.479839     66.912766      2.204898      0.076720     -0.008597
    3771.2000     22.614586     66.742325      2.202453      0.081606     -0.009051
    3771.1000     22.837021     66.724426      2.192258      0.084219     -0.010082
    3771.0000     22.571400     66.951096      2.172173      0.078508     -0.011127
    3770.9000     21.770378     67.204254      2.155159      0.075811     -0.011991
    3770.8000     20.557072     67.322250      2.144320      0.075483     -0.012691
    3770.7000     19.452156     67.344070      2.139235      0.075363     -0.013319
    3770.6000     18.885899     67.583786      2.137670      0.078562     -0.013938
    3770.5000     18.763535     67.842728      2.136112      0.081500     -0.014579
    3770.4000     18.547573     67.804718      2.130290      0.078098     -0.015152
    3770.3000     17.985001     67.714920      2.120049      0.069848     -0.015537
    3770.2000     17.497509     67.698196      2.110369      0.061336     -0.015752
    3770.1000     17.793076     67.720566      2.106766      0.057294     -0.015961
    3770.0000     18.719177     67.736588      2.105979      0.055963     -0.016191
    3769.9000     19.634480     67.781219      2.104421      0.054813     -0.016404
    3769.8000     19.974583     67.848526      2.101729      0.053247     -0.016548
    3769.7000     20.079834     67.782242      2.100463      0.052881     -0.016662
    3769.6000     20.173115     67.638718      2.099049      0.051001     -0.016880
    3769.5000     20.161095     67.664536      2.097229      0.047020     -0.017252
    3769.4000     19.969948     67.858444      2.102084      0.048724     -0.017587
    3769.3000     19.698902     67.961304      2.109656      0.053494     -0.017794
