# LAS format data
~Version Information
VERS.     2.00: CWLS LOG ASCII STANDARD - VERSION 2.0
WRAP.       NO: ONE LINE PER DEPTH STEP
~Well Information
#MNEM   .UNITS    DATA                           DESCRIPTION
#----   ------    ----                           -----------
STRT    .M        4182.0000                     :First Index Value
STOP    .M        48.1000                       :Last Index Value
STEP    .M        -0.1000                       :Frame Spacing
NULL    .         -999.2500                     :Absent Value
WELL    .         L07-04                        :Well Name   
FLD     .         UNKNOWN                       :Field Name  
CNTY    .                                       :County
STAT    .                                       :State
CTRY    .                                       :Country
LOC     .                                       :Location
API     .                                       :API Number
DATE    .                                       :Date
COMP    .         PETROLAND                     :Company Name
SRVC    .                                       :Service Company
~Parameter Information
#MNEM   .UNITS    VALUE                          DESCRIPTION
#----   ------    -----                          -----------
TDD     .M        4182.00000                    :Total Depth (Driller)   
UBID    .         7265                          :Unique Borehole Id  
PDAT    .         Mean Sea Level                :Permanent Datum 
EPD     .M           0.00000                    :Elevation of Permanent Datum (PDAT) above Mean Sea Level
LMF     .         Rotary Table                  :Logging Measured From (Name of Logging Elevation Reference) 
APD     .M          30.50000                    :Elevation of Depth Reference (LMF) Above Permanent Datum
EGL     .M         -34.30000                    :Elevation of Ground Level Above Mean Sea Level  
~Curve Information
#MNEM   .UNITS    API CODE                       CURVE DESCRIPTION
#----   ------    --------                       -----------------
DEPT    .M                                      :1     Index curve
GR      .GAPI                                   :2     L07-04
DT      .US/F                                   :3     L07-04
RHOB    .G/C3                                   :4     L07-04
DRHO    .G/C3                                   :5     L07-04
NPHI    .V/V                                    :6     L07-04
~Ascii Log Data
# ...
    3817.2001     18.254112     48.700516      2.894831      0.000706      0.003667
    3817.1001     17.756306     48.750656      2.901819      0.002305      0.003553
    3817.0001     17.061916     48.770302      2.912299      0.013557      0.003412
    3816.9001     16.356789     48.783371      2.924691      0.035176      0.003171
    3816.8001     15.987221     48.809608      2.940839      0.055805      0.002955
    3816.7001     16.144638     48.844101      2.956079      0.067491      0.002894
    3816.6001     16.752644     48.880928      2.960966      0.069766      0.002930
    3816.5001     17.608231     48.923866      2.953595      0.066176      0.002809
    3816.4001     18.465744     48.898140      2.941795      0.057688      0.002531
    3816.3001     19.106411     48.738754      2.934551      0.046802      0.002343
    3816.2001     19.517040     48.538506      2.924946      0.040190      0.002352
    3816.1001     19.693447     48.392288      2.909466      0.038735      0.002570
    3816.0001     19.701675     48.306625      2.893311      0.034487      0.002898
    3815.9001     19.710419     48.225632      2.878897      0.022531      0.003286
    3815.8001     20.160164     48.161194      2.867961      0.007505      0.003855
    3815.7001     21.501350     48.218964      2.861435      0.001035      0.004883
    3815.6001     23.354774     48.488739      2.862616      0.000234      0.006697
    3815.5001     25.012634     48.976509      2.862308      0.000226      0.010583
    3815.4001     26.001755     49.556664      2.839640      0.000237      0.018363
    3815.3001     26.426353     50.244919      2.810054      0.000977      0.029549
    3815.2001     26.727287     50.989632      2.793128      0.006573      0.041891
    3815.1001     27.271366     51.586555      2.782743      0.022168      0.052495
    3815.0001     27.712029     52.015381      2.775122      0.037420      0.060718
    3814.9001     27.709450     52.301193      2.768085      0.041707      0.066856
    3814.8003     27.719410     52.412674      2.768573      0.046966      0.071656
    3814.7003     27.812317     52.343269      2.773211      0.049809      0.074380
    3814.6003     27.918285     52.169472      2.778238      0.047008      0.074540
    3814.5003     27.848549     51.943230      2.793752      0.047722      0.071697
    3814.4003     27.712601     51.666031      2.813724      0.050790      0.066337
    3814.3003     27.683140     51.335678      2.826612      0.052115      0.060633
    3814.2003     27.480350     50.964165      2.842070      0.056891      0.055270
    3814.1003     27.340366     50.571678      2.848880      0.060516      0.049238
    3814.0003     27.743393     50.186012      2.828728      0.054755      0.041183
    3813.9003     28.351345     49.829903      2.800785      0.049724      0.034375
    3813.8003     29.309456     49.516327      2.778541      0.046702      0.029604
    3813.7003     30.859890     49.270691      2.765547      0.039490      0.024932
    3813.6003     32.434273     49.112694      2.750029      0.034198      0.020581
    3813.5003     33.835548     49.069565      2.728628      0.028176      0.017030
    3813.4003     35.316559     49.114265      2.712530      0.012132      0.014881
    3813.3003     36.550827     49.151543      2.694697      0.000318      0.013781
    3813.2003     37.460617     49.148521      2.674349      0.001299      0.013456
    3813.1003     38.395470     49.208214      2.671454      0.015178      0.013776
    3813.0003     39.535057     49.308388      2.703760      0.071503      0.013733
    3812.9003     40.891991     49.401726      2.756958      0.154635      0.012900
    3812.8003     42.183578     49.445381      2.773493      0.185622      0.012521
    3812.7003     43.252388     49.421730      2.749516      0.165691      0.012897
    3812.6003     44.036018     49.418182      2.712721      0.132868      0.013916
    3812.5003     44.862587     49.569298      2.698268      0.130038      0.014956
    3812.4003     46.186531     49.752518      2.700331      0.163793      0.015285
    3812.3003     48.256615     49.761421      2.704542      0.207059      0.014481
    3812.2003     50.778107     49.608521      2.712691      0.225160      0.013112
    3812.1003     53.040657     49.434273      2.714222      0.210627      0.011848
    3812.0003     54.142876     49.419708      2.701398      0.175334      0.011323
    3811.9003     54.036026     49.582970      2.685029      0.131307      0.011506
    3811.8003     53.167892     49.843056      2.672421      0.097440      0.012045
    3811.7003     52.221512     50.030716      2.668236      0.086251      0.012442
    3811.6003     51.313553     50.040085      2.675767      0.091321      0.012572
    3811.5003     50.735893     49.894508      2.687215      0.100168      0.012427
    3811.4003     50.915184     49.750771      2.695126      0.102865      0.012097
    3811.3003     52.252563     49.733528      2.705812      0.101326      0.011668
    3811.2003     54.836784     49.895531      2.717183      0.099806      0.011292
    3811.1003     57.965187     50.201057      2.719492      0.093791      0.011249
    3811.0003     60.454216     50.585762      2.711923      0.074322      0.011975
    3810.9003     61.959679     50.974930      2.705365      0.051121      0.013803
    3810.8003     62.871872     51.354378      2.707633      0.041925      0.016730
    3810.7003     63.125740     51.750038      2.713726      0.046465      0.020305
    3810.6003     62.534874     52.152885      2.720447      0.053900      0.023974
    3810.5003     61.041084     52.499016      2.724837      0.051836      0.027299
    3810.4003     58.742706     52.738594      2.719079      0.034424      0.029831
    3810.3003     55.754364     52.861458      2.707813      0.013027      0.031181
    3810.2003     52.337151     52.857697      2.705386      0.002091      0.031194
    3810.1003     49.156715     52.702957      2.716061      0.000174      0.030118
    3810.0003     47.149284     52.371185      2.731820      0.000222      0.028275
    3809.9003     46.819138     51.870003      2.741446      0.000251      0.026256
    3809.8003     47.850113     51.303818      2.740118      0.000217      0.024837
    3809.7003     49.780449     50.882820      2.733691      0.000153      0.023785
    3809.6003     52.015862     50.734375      2.730431      0.000147      0.022517
    3809.5003     53.505104     50.767761      2.731232      0.000230      0.021388
    3809.4003     53.652962     50.906616      2.731774      0.001065      0.020833
    3809.3003     52.881981     51.139977      2.731329      0.005947      0.020592
    3809.2003     52.265244     51.365921      2.733742      0.018170      0.020229
    3809.1003     52.743011     51.499741      2.738748      0.032290      0.019726
    3809.0003     54.563454     51.558113      2.739945      0.036765      0.019307
    3808.9003     57.245766     51.598907      2.733486      0.028944      0.019092
    3808.8003     59.843079     51.722244      2.724477      0.022227      0.019188
    3808.7003     61.450447     52.002617      2.718707      0.024636      0.019659
    3808.6003     61.555183     52.368523      2.714049      0.024957      0.020357
    3808.5003     60.361855     52.645531      2.708798      0.020481      0.021027
    3808.4003     58.644257     52.740868      2.707541      0.020099      0.021476
    3808.3003     57.143517     52.708237      2.713288      0.018702      0.021596
    3808.2003     56.408966     52.592262      2.719481      0.010649      0.021429
    3808.1003     56.815071     52.364746      2.718331      0.003134      0.021175
    3808.0003     58.226845     52.075127      2.712560      0.000561      0.021090
    3807.9003     59.870926     51.897110      2.706269      0.000276      0.021245
    3807.8003     60.793228     51.986755      2.698796      0.000241      0.021562
    3807.7003     60.562408     52.319893      2.693158      0.000187      0.022110
