# LAS format data
~Version Information
VERS.     2.00: CWLS LOG ASCII STANDARD - VERSION 2.0
WRAP.       NO: ONE LINE PER DEPTH STEP
~Well Information
#MNEM   .UNITS    DATA                           DESCRIPTION
#----   ------    ----                           -----------
STRT    .M        4182.0000                     :First Index Value
STOP    .M        48.1000                       :Last Index Value
STEP    .M        -0.1000                       :Frame Spacing
NULL    .         -999.2500                     :Absent Value
WELL    .         L07-04                        :Well Name   
FLD     .         UNKNOWN                       :Field Name  
CNTY    .                                       :County
STAT    .                                       :State
CTRY    .                                       :Country
LOC     .                                       :Location
API     .                                       :API Number
DATE    .                                       :Date
COMP    .         PETROLAND                     :Company Name
SRVC    .                                       :Service Company
~Parameter Information
#MNEM   .UNITS    VALUE                          DESCRIPTION
#----   ------    -----                          -----------
TDD     .M        4182.00000                    :Total Depth (Driller)   
UBID    .         7265                          :Unique Borehole Id  
PDAT    .         Mean Sea Level                :Permanent Datum 
EPD     .M           0.00000                    :Elevation of Permanent Datum (PDAT) above Mean Sea Level
LMF     .         Rotary Table                  :Logging Measured From (Name of Logging Elevation Reference) 
APD     .M          30.50000                    :Elevation of Depth Reference (LMF) Above Permanent Datum
EGL     .M         -34.30000                    :Elevation of Ground Level Above Mean Sea Level  
~Curve Information
#MNEM   .UNITS    API CODE                       CURVE DESCRIPTION
#----   ------    --------                       -----------------
DEPT    .M                                      :1     Index curve
GR      .GAPI                                   :2     L07-04
DT      .US/F                                   :3     L07-04
RHOB    .G/C3                                   :4     L07-04
DRHO    .G/C3                                   :5     L07-04
NPHI    .V/V                                    :6     L07-04
~Ascii Log Data
# ...
    3711.6002    100.776550     65.476715      2.690068      0.113595      0.148123
    3711.5002     98.646591     64.909668      2.697205      0.084425      0.142581
    3711.4002     98.032318     64.156647      2.698431      0.061273      0.138279
    3711.3002     98.834427     63.362801      2.694526      0.041514      0.135699
    3711.2002     99.945129     62.799576      2.691319      0.023851      0.134713
    3711.1002    100.292648     62.610207      2.687950      0.015449      0.135813
    3711.0002     99.060043     62.700516      2.679808      0.020193      0.138852
    3710.9002     95.751389     62.919907      2.673026      0.019820      0.141330
    3710.8002     90.898682     63.083099      2.674546      0.008030      0.139873
    3710.7002     86.694504     63.016190      2.682477      0.001542      0.133681
    3710.6002     83.999588     62.734352      2.688760      0.000510      0.126552
    3710.5002     83.045074     62.198380      2.689654      0.000453      0.121708
    3710.4002     83.497543     61.368591      2.692249      0.002052      0.118425
    3710.3002     85.743927     60.411713      2.700018      0.011300      0.116061
    3710.2002     89.811859     59.641876      2.708578      0.022911      0.114409
    3710.1002     94.433578     59.167686      2.706378      0.017908      0.113934
    3710.0002     98.507721     59.134903      2.696634      0.014254      0.116240
    3709.9002    101.056412     59.693497      2.692720      0.029993      0.121789
    3709.8002    103.078552     60.790039      2.702456      0.039194      0.127522
    3709.7002    104.203964     62.308968      2.716430      0.050063      0.133238
    3709.6002    103.877884     63.714951      2.722148      0.076769      0.138707
    3709.5002    102.856781     64.680115      2.737041      0.099355      0.143047
    3709.4002    101.711807     65.177856      2.743214      0.099999      0.146845
    3709.3002    101.159348     65.551804      2.717312      0.077315      0.151215
    3709.2002    101.016678     65.841843      2.697073      0.059825      0.154429
    3709.1002    101.338455     66.040466      2.698421      0.059787      0.154451
    3709.0002    102.178207     66.154816      2.710135      0.065400      0.151132
    3708.9002    103.982666     66.101669      2.718581      0.057204      0.146422
    3708.8002    106.542343     65.756531      2.707258      0.031795      0.141798
    3708.7002    108.838379     65.146194      2.673023      0.011028      0.137673
    3708.6002    110.688416     64.620377      2.644126      0.002359      0.135376
    3708.5002    112.267868     64.542267      2.636728      0.013498      0.137936
    3708.4002    114.196304     65.055283      2.635620      0.044057      0.147516
    3708.3002    115.913773     66.413162      2.645647      0.090766      0.160229
    3708.2002    117.058151     68.412109      2.661196      0.142195      0.172962
    3708.1002    117.957413     70.198578      2.664666      0.184724      0.186885
    3708.0002    118.147278     71.468491      2.662042      0.215004      0.196552
    3707.9002    117.325150     72.096344      2.656356      0.235067      0.198453
    3707.8002    115.813629     72.297073      2.639835      0.250065      0.196753
    3707.7002    114.121140     72.078857      2.625791      0.257060      0.191721
    3707.6002    113.102692     71.583389      2.620333      0.253031      0.185739
    3707.5002    113.289902     70.959045      2.606504      0.234979      0.182909
    3707.4002    114.197266     70.422440      2.592178      0.205763      0.184060
    3707.3002    114.751831     70.228195      2.586022      0.180185      0.187003
    3707.2002    114.681046     70.454224      2.578566      0.175314      0.189752
    3707.1002    114.217087     70.903473      2.575702      0.190750      0.192736
    3707.0002    113.983978     71.257690      2.588961      0.213236      0.195756
    3706.9002    114.205933     71.514801      2.617389      0.237876      0.195478
    3706.8002    114.547897     71.667068      2.650428      0.255945      0.191728
    3706.7002    114.256699     71.613495      2.674531      0.261669      0.186535
    3706.6002    113.081894     71.244217      2.690660      0.262122      0.180257
    3706.5002    111.663177     70.751343      2.700555      0.261053      0.175081
    3706.4002    110.969467     70.396103      2.701507      0.251482      0.173045
    3706.3002    110.951767     70.034897      2.691185      0.221657      0.172346
    3706.2002    111.178802     69.608398      2.680343      0.175517      0.171512
    3706.1002    111.059097     69.230072      2.679255      0.131946      0.170862
    3706.0002    110.111496     68.934006      2.678135      0.099835      0.170833
    3705.9002    108.492981     68.687119      2.670290      0.076093      0.171287
    3705.8002    106.894958     68.422989      2.661531      0.051234      0.172395
    3705.7002    105.644012     68.150009      2.659218      0.026407      0.175263
    3705.6002    104.793488     67.975769      2.664435      0.008717      0.179186
    3705.5002    104.214066     67.975159      2.670348      0.001537      0.181441
    3705.4002    103.892334     68.056000      2.671661      0.000425      0.180637
    3705.3002    104.110397     68.108276      2.670444      0.001205      0.178322
    3705.2002    105.409302     68.197845      2.673466      0.006390      0.177323
    3705.1002    107.980637     68.501572      2.681363      0.019650      0.178272
    3705.0002    111.008270     69.052567      2.686916      0.036642      0.180020
    3704.9002    113.426819     69.726013      2.685858      0.048618      0.182316
    3704.8002    114.917099     70.392563      2.683370      0.052930      0.185943
    3704.7002    115.720551     70.942551      2.681394      0.052266      0.189212
    3704.6002    115.976334     71.276840      2.673426      0.045710      0.189274
    3704.5002    115.778244     71.348602      2.657925      0.030295      0.186960
    3704.4002    115.358246     71.188843      2.642547      0.012250      0.185081
    3704.3002    114.961380     70.863998      2.634934      0.002339      0.184732
    3704.2002    114.716141     70.461792      2.633588      0.000338      0.185720
    3704.1002    114.748642     70.086548      2.633433      0.000365      0.188740
    3704.0002    114.955643     69.866913      2.634661      0.000366      0.193852
    3703.9002    114.734283     69.878387      2.640488      0.000323      0.198313
    3703.8002    113.581680     70.061554      2.648935      0.000295      0.199730
    3703.7002    111.860382     70.255814      2.654486      0.000312      0.198816
    3703.6002    110.535416     70.352859      2.656188      0.000418      0.197480
    3703.5002    110.309250     70.359558      2.654586      0.000809      0.196796
    3703.4002    111.056549     70.327301      2.650118      0.001539      0.196757
    3703.3002    112.165390     70.268692      2.647804      0.003417      0.196996
    3703.2002    113.168213     70.173691      2.652802      0.009811      0.197549
    3703.1002    114.004654     70.060165      2.661826      0.019774      0.198362
    3703.0002    114.774139     69.979248      2.665505      0.022158      0.198546
    3702.9002    115.456482     69.981949      2.663567      0.013559      0.197842
    3702.8002    115.954880     70.087021      2.665676      0.007115      0.197186
    3702.7002    116.151459     70.283661      2.674540      0.014135      0.197111
    3702.6002    115.691666     70.543823      2.681219      0.029150      0.197680
    3702.5002    114.339523     70.817932      2.678229      0.037445      0.198922
    3702.4002    112.685608     71.013962      2.668702      0.031040      0.200119
    3702.3002    111.545181     71.035736      2.658776      0.016033      0.200402
    3702.2002    110.953140     70.885971      2.650774      0.007824      0.199660
    3702.1002    110.479446     70.696106      2.650525      0.019678      0.197899
