# LAS format data
~Version Information
VERS.     2.00: CWLS LOG ASCII STANDARD - VERSION 2.0
WRAP.       NO: ONE LINE PER DEPTH STEP
~Well Information
#MNEM   .UNITS    DATA                           DESCRIPTION
#----   ------    ----                           -----------
STRT    .M        4182.0000                     :First Index Value
STOP    .M        48.1000                       :Last Index Value
STEP    .M        -0.1000                       :Frame Spacing
NULL    .         -999.2500                     :Absent Value
WELL    .         L07-04                        :Well Name   
FLD     .         UNKNOWN                       :Field Name  
CNTY    .                                       :County
STAT    .                                       :State
CTRY    .                                       :Country
LOC     .                                       :Location
API     .                                       :API Number
DATE    .                                       :Date
COMP    .         PETROLAND                     :Company Name
SRVC    .                                       :Service Company
~Parameter Information
#MNEM   .UNITS    VALUE                          DESCRIPTION
#----   ------    -----                          -----------
TDD     .M        4182.00000                    :Total Depth (Driller)   
UBID    .         7265                          :Unique Borehole Id  
PDAT    .         Mean Sea Level                :Permanent Datum 
EPD     .M           0.00000                    :Elevation of Permanent Datum (PDAT) above Mean Sea Level
LMF     .         Rotary Table                  :Logging Measured From (Name of Logging Elevation Reference) 
APD     .M          30.50000                    :Elevation of Depth Reference (LMF) Above Permanent Datum
EGL     .M         -34.30000                    :Elevation of Ground Level Above Mean Sea Level  
~Curve Information
#MNEM   .UNITS    API CODE                       CURVE DESCRIPTION
#----   ------    --------                       -----------------
DEPT    .M                                      :1     Index curve
GR      .GAPI                                   :2     L07-04
DT      .US/F                                   :3     L07-04
RHOB    .G/C3                                   :4     L07-04
DRHO    .G/C3                                   :5     L07-04
NPHI    .V/V                                    :6     L07-04
~Ascii Log Data
# ...
    4114.8002     68.237198     66.650558      2.686141      0.050825      0.119380
    4114.7002     78.705383     66.875732      2.680500      0.046268      0.121586
    4114.6002     84.145920     66.786575      2.671553      0.043174      0.119481
    4114.5002     83.800003     66.391434      2.659955      0.041247      0.114344
    4114.4002     77.783249     65.822052      2.646168      0.041730      0.108935
    4114.3002     68.378143     65.264832      2.631275      0.046639      0.104902
    4114.2002     59.104431     64.996857      2.616797      0.054130      0.102931
    4114.1002     52.328865     65.342331      2.603524      0.057944      0.104206
    4114.0002     48.029251     66.232697      2.590434      0.054272      0.108693
    4113.9002     45.010178     67.038696      2.575004      0.042612      0.114319
    4113.8002     42.591179     67.364120      2.557279      0.026983      0.119643
    4113.7002     41.209259     67.503937      2.542840      0.018850      0.124851
    4113.6002     41.404045     67.796875      2.533885      0.019731      0.129473
    4113.5002     42.352882     68.188263      2.525354      0.018653      0.132469
    4113.4002     41.902092     68.493408      2.517056      0.018691      0.133693
    4113.3002     38.857765     68.668793      2.512073      0.027335      0.133878
    4113.2002     34.312714     68.799500      2.509663      0.036969      0.134153
    4113.1002     30.389824     68.949432      2.512406      0.040066      0.136508
    4113.0002     29.146717     69.128876      2.528900      0.038862      0.142395
    4112.9002     32.610870     69.369843      2.564402      0.037729      0.150742
    4112.8002     41.178131     69.727890      2.609661      0.041026      0.159062
    4112.7002     54.227654     70.172180      2.647234      0.047659      0.166202
    4112.6002     70.424622     70.480804      2.659606      0.047771      0.171131
    4112.5002     83.869507     70.402863      2.644275      0.035804      0.172487
    4112.4002     88.297989     69.943161      2.617749      0.020489      0.170241
    4112.3002     84.225449     69.402802      2.595274      0.019023      0.165580
    4112.2002     73.925751     68.952118      2.580672      0.031893      0.159471
    4112.1002     61.351463     68.544571      2.568244      0.039233      0.152551
    4112.0002     50.780708     68.125458      2.551991      0.031012      0.143830
    4111.9002     44.236664     67.833069      2.535758      0.013544      0.133136
    4111.8002     40.280296     67.819824      2.531081      0.004717      0.122886
    4111.7002     36.685020     67.698364      2.536620      0.011317      0.114602
    4111.6002     32.610291     67.123886      2.544469      0.026328      0.109165
    4111.5002     29.319782     66.459152      2.548759      0.033202      0.107579
    4111.4002     28.266819     66.178741      2.546287      0.025159      0.110618
    4111.3002     29.551502     66.333084      2.539658      0.010857      0.116752
    4111.2002     32.280670     66.630905      2.537498      0.003908      0.122546
    4111.1002     35.359337     66.861374      2.546086      0.010877      0.128298
    4111.0002     37.617104     66.949814      2.564930      0.023638      0.135426
    4110.9002     39.909920     67.181931      2.584644      0.020352      0.141821
    4110.8002     43.178787     67.630569      2.598848      0.004846      0.145652
    4110.7002     48.824226     68.091599      2.603624      0.000299      0.146523
    4110.6002     58.943169     68.301300      2.598711     -0.000786      0.144939
    4110.5002     71.592896     68.352173      2.583427     -0.000837      0.140710
    4110.4002     75.458908     68.783859      2.570111      0.004322      0.136452
    4110.3002     72.413940     69.259277      2.561422      0.015572      0.132817
    4110.2002     65.125671     69.530121      2.555696      0.022092      0.129549
    4110.1002     55.511566     69.511795      2.552511      0.015390      0.126576
    4110.0002     46.575134     69.350845      2.555192      0.018939      0.124441
    4109.9002     40.158859     69.104034      2.559843      0.038239      0.123111
    4109.8002     36.743820     68.692230      2.556574      0.046902      0.122288
    4109.7002     35.907806     68.364868      2.550973      0.046925      0.121991
    4109.6002     35.565216     68.423096      2.549228      0.040620      0.121881
    4109.5002     34.467026     68.685318      2.543575      0.020911      0.121477
    4109.4002     33.165131     68.988342      2.536615      0.000957      0.120672
    4109.3002     32.731613     69.049927      2.534919      0.003953      0.119642
    4109.2002     32.334419     69.161270      2.538479      0.014556      0.118333
    4109.1002     32.120499     69.265320      2.548849      0.022050      0.116185
    4109.0002     32.623062     69.017456      2.564651      0.016030      0.113184
    4108.9002     34.401566     68.238129      2.590487      0.028305      0.110442
    4108.8002     37.990860     67.247101      2.616132      0.044429      0.109872
    4108.7002     42.828232     66.430588      2.629781      0.048319      0.112709
    4108.6002     46.701180     65.879196      2.633667      0.045574      0.116340
    4108.5002     50.938782     65.577271      2.633262      0.033867      0.118413
    4108.4002     57.441811     65.453369      2.632022      0.013259      0.117754
    4108.3002     63.302322     65.500977      2.626380      0.000358      0.114772
    4108.2002     66.156418     65.675751      2.617350      0.001062      0.110886
    4108.1002     65.123489     65.892197      2.611835      0.006757      0.106738
    4108.0002     57.937866     66.029343      2.612996      0.023160      0.101288
    4107.9002     48.511940     66.189987      2.614898      0.039242      0.095883
    4107.8002     42.621384     66.543106      2.608553      0.041510      0.092540
    4107.7002     38.553970     66.731277      2.599382      0.042571      0.090229
    4107.6002     35.840240     66.739090      2.592981      0.045117      0.088632
    4107.5002     33.666130     66.763672      2.595029      0.049334      0.087498
    4107.4002     32.858627     66.691269      2.605473      0.058003      0.088434
    4107.3002     34.375710     66.435547      2.622160      0.067450      0.093660
    4107.2002     38.451096     66.064468      2.638393      0.068703      0.103425
    4107.1002     44.911118     65.776215      2.645156      0.059611      0.114602
    4107.0002     52.558464     65.771225      2.635249      0.047771      0.123390
    4106.9002     59.335793     66.102722      2.612418      0.043935      0.128592
    4106.8002     63.216286     66.748413      2.590141      0.047494      0.131483
    4106.7002     62.782188     67.682693      2.577106      0.052568      0.134907
    4106.6002     58.189072     68.765457      2.568174      0.055169      0.140212
    4106.5002     52.769600     69.774719      2.554210      0.051015      0.146374
    4106.4002     49.087898     70.692459      2.536395      0.042934      0.151489
    4106.3002     47.246483     71.507507      2.521915      0.037664      0.154464
    4106.2002     46.689537     72.041153      2.509116      0.034243      0.155063
    4106.1002     46.546280     72.298523      2.494379      0.027236      0.154373
    4106.0002     46.237534     72.514771      2.480962      0.015190      0.153573
    4105.9002     44.614700     72.832886      2.476973      0.004704      0.152993
    4105.8002     40.974533     73.108597      2.488301      0.000882      0.151419
    4105.7002     36.315582     73.028214      2.511477      0.000358      0.147632
    4105.6002     34.018089     72.425980      2.536590      0.000299      0.143160
    4105.5002     37.946632     71.237015      2.561260      0.000282      0.139505
    4105.4002     47.142227     69.593842      2.589969      0.000298      0.136009
    4105.3002     55.971764     68.040085      2.614776      0.000321      0.133322
