# LAS format data
~Version Information
VERS.     2.00: CWLS LOG ASCII STANDARD - VERSION 2.0
WRAP.       NO: ONE LINE PER DEPTH STEP
~Well Information
#MNEM   .UNITS    DATA                           DESCRIPTION
#----   ------    ----                           -----------
STRT    .M        4182.0000                     :First Index Value
STOP    .M        48.1000                       :Last Index Value
STEP    .M        -0.1000                       :Frame Spacing
NULL    .         -999.2500                     :Absent Value
WELL    .         L07-04                        :Well Name   
FLD     .         UNKNOWN                       :Field Name  
CNTY    .                                       :County
STAT    .                                       :State
CTRY    .                                       :Country
LOC     .                                       :Location
API     .                                       :API Number
DATE    .                                       :Date
COMP    .         PETROLAND                     :Company Name
SRVC    .                                       :Service Company
~Parameter Information
#MNEM   .UNITS    VALUE                          DESCRIPTION
#----   ------    -----                          -----------
TDD     .M        4182.00000                    :Total Depth (Driller)   
UBID    .         7265                          :Unique Borehole Id  
PDAT    .         Mean Sea Level                :Permanent Datum 
EPD     .M           0.00000                    :Elevation of Permanent Datum (PDAT) above Mean Sea Level
LMF     .         Rotary Table                  :Logging Measured From (Name of Logging Elevation Reference) 
APD     .M          30.50000                    :Elevation of Depth Reference (LMF) Above Permanent Datum
EGL     .M         -34.30000                    :Elevation of Ground Level Above Mean Sea Level  
~Curve Information
#MNEM   .UNITS    API CODE                       CURVE DESCRIPTION
#----   ------    --------                       -----------------
DEPT    .M                                      :1     Index curve
GR      .GAPI                                   :2     L07-04
DT      .US/F                                   :3     L07-04
RHOB    .G/C3                                   :4     L07-04
DRHO    .G/C3                                   :5     L07-04
NPHI    .V/V                                    :6     L07-04
~Ascii Log Data
# ...
    4086.0004     35.542801     65.151321      2.655192      0.061655      0.091409
    4085.9004     41.225189     65.783188      2.673059      0.060240      0.100934
    4085.8004     49.828781     66.199310      2.686710      0.054259      0.109633
    4085.7004     59.794746     66.233826      2.696485      0.041486      0.116360
    4085.6004     69.578262     66.037933      2.701830      0.021839      0.122665
    4085.5004     78.000275     65.672501      2.705397      0.007440      0.128604
    4085.4004     84.391891     65.187271      2.707446      0.008679      0.133458
    4085.3004     88.108261     64.623901      2.702538      0.017647      0.136645
    4085.2004     89.054993     64.012207      2.691133      0.019915      0.137924
    4085.1004     88.253571     63.438316      2.681288      0.015323      0.137091
    4085.0004     87.099503     63.035141      2.677606      0.016176      0.133883
    4084.9004     87.128174     62.767952      2.672774      0.016364      0.129874
    4084.8004     88.308411     62.627083      2.662978      0.008194      0.127573
    4084.7004     88.830185     62.775856      2.658220      0.001489      0.128066
    4084.6004     87.585632     63.212914      2.663197      0.000193      0.130303
    4084.5004     85.531067     63.665024      2.672431      0.000226      0.132455
    4084.4004     84.374054     63.833878      2.677614      0.000262      0.133548
    4084.3004     84.463715     63.694099      2.672369      0.000243      0.133304
    4084.2004     84.275696     63.498741      2.660537      0.000193      0.132293
    4084.1004     82.249802     63.444763      2.651766      0.000180      0.131548
    4084.0004     78.568298     63.455551      2.647407      0.000203      0.131577
    4083.9004     74.690918     63.373695      2.643909      0.000535      0.132170
    4083.8004     71.566910     63.217308      2.643183      0.003584      0.132927
    4083.7004     69.033951     63.099556      2.648936      0.013676      0.133428
    4083.6004     66.742447     63.088531      2.658892      0.029083      0.133085
    4083.5004     64.778641     63.181580      2.664891      0.041057      0.131677
    4083.4004     63.225647     63.343987      2.661922      0.046070      0.129976
    4083.3004     61.455582     63.519928      2.654271      0.047868      0.128413
    4083.2004     58.701530     63.636147      2.650892      0.050532      0.126182
    4083.1004     55.707085     63.648354      2.653578      0.054565      0.122661
    4083.0004     53.892258     63.552246      2.654244      0.055629      0.118036
    4082.9004     53.737465     63.381996      2.646041      0.047898      0.112811
    4082.8004     55.402992     63.255814      2.634552      0.031867      0.107915
    4082.7004     58.868698     63.326828      2.630104      0.015090      0.103700
    4082.6004     63.206497     63.575798      2.633873      0.004518      0.099965
    4082.5004     66.673126     63.678169      2.639159      0.000800      0.098072
    4082.4004     68.347336     63.414886      2.642989      0.000228      0.100843
    4082.3004     68.635345     63.116562      2.649474      0.001807      0.110044
    4082.2004     67.624512     63.345383      2.659242      0.008914      0.124670
    4082.1004     65.014343     64.293854      2.667067      0.018704      0.141701
    4082.0004     61.765518     65.630066      2.669550      0.019336      0.156861
    4081.9004     59.826721     66.949203      2.668005      0.011017      0.166190
    4081.8004     61.298927     67.955383      2.667914      0.009532      0.168122
    4081.7004     67.513092     68.328735      2.675395      0.023968      0.164412
    4081.6004     77.403000     67.911453      2.687619      0.043731      0.156577
    4081.5004     87.241531     66.907715      2.695671      0.052984      0.146021
    4081.4004     93.589859     65.699356      2.698434      0.052255      0.136055
    4081.3004     95.890671     64.490967      2.701762      0.050306      0.128440
    4081.2004     95.827530     63.394119      2.707656      0.047698      0.121805
    4081.1004     94.093765     62.736092      2.710133      0.037287      0.115845
    4081.0004     92.035919     62.862106      2.708310      0.024086      0.113084
    4080.9004     92.112747     63.723274      2.709988      0.023732      0.117084
    4080.8004     93.971954     65.054367      2.714659      0.031090      0.130158
    4080.7004     96.436203     66.651978      2.717563      0.033558      0.150693
    4080.6004    100.279404     68.443146      2.718645      0.033253      0.171996
    4080.5004    106.156235     70.212387      2.717083      0.033750      0.186999
    4080.4004    112.699875     71.313583      2.713470      0.031414      0.191501
    4080.3004    118.101456     71.139069      2.711725      0.020436      0.187913
    4080.2004    123.429916     69.762543      2.711125      0.006860      0.179509
    4080.1004    129.486053     67.914291      2.710767      0.001196      0.169007
    4080.0004    133.032227     66.107117      2.714697      0.000294      0.156785
    4079.9004    131.848114     64.628799      2.718816      0.000300      0.143992
    4079.8004    126.648117     63.660362      2.716637      0.000334      0.133571
    4079.7004    118.829834     63.043274      2.716292      0.001674      0.125947
    4079.6004    110.241531     62.658791      2.721050      0.009342      0.121212
    4079.5004    103.093613     62.399292      2.723283      0.022288      0.118425
    4079.4004     98.491730     62.245827      2.718282      0.022794      0.116689
    4079.3004     96.819290     62.280334      2.709467      0.008524      0.115487
    4079.2004     96.092422     62.491089      2.708426      0.004244      0.114234
    4079.1004     94.309708     62.591774      2.718451      0.016562      0.112153
    4079.0004     91.027069     62.418396      2.733595      0.038686      0.108556
    4078.9004     88.344574     62.222061      2.740214      0.052607      0.103825
    4078.8004     85.886383     61.950714      2.740476      0.058186      0.099221
    4078.7004     82.920074     61.549980      2.737876      0.058401      0.095752
    4078.6004     79.428131     61.099098      2.730628      0.055180      0.091781
    4078.5004     75.993652     60.586113      2.725098      0.052623      0.087269
    4078.4004     73.222046     60.101807      2.725460      0.052763      0.083295
    4078.3004     70.295288     59.888824      2.720272      0.047904      0.081586
    4078.2004     67.557785     60.164543      2.716663      0.046414      0.083463
    4078.1004     65.672943     60.797684      2.722670      0.056378      0.088463
    4078.0004     65.148621     61.207451      2.724241      0.061251      0.094215
    4077.9004     67.322266     61.634125      2.714737      0.048387      0.099432
    4077.8004     72.300354     62.554062      2.697808      0.018178      0.103422
    4077.7004     76.716171     63.310638      2.691558      0.002260      0.106564
    4077.6004     79.265152     63.732483      2.697551      0.011524      0.108800
    4077.5004     81.246841     64.117004      2.701705      0.027950      0.110446
    4077.4004     84.689713     64.517410      2.703236      0.027130      0.112083
    4077.3004     88.970749     64.630768      2.705679      0.014742      0.114009
    4077.2004     90.899170     64.050064      2.712811      0.021791      0.115997
    4077.1004     90.728500     63.191078      2.713166      0.023266      0.117090
    4077.0004     89.073105     62.380241      2.709217      0.017286      0.116267
    4076.9004     87.149353     61.763954      2.719341      0.032653      0.114836
    4076.8004     84.835709     61.496193      2.726686      0.044964      0.118108
    4076.7004     82.318466     61.731712      2.723343      0.040043      0.127026
    4076.6004     80.630997     62.412361      2.723619      0.036807      0.133116
    4076.5004     80.255493     63.359154      2.720750      0.037119      0.138028
