# LAS format data
~Version Information
VERS.     2.00: CWLS LOG ASCII STANDARD - VERSION 2.0
WRAP.       NO: ONE LINE PER DEPTH STEP
~Well Information
#MNEM   .UNITS    DATA                           DESCRIPTION
#----   ------    ----                           -----------
STRT    .M        4182.0000                     :First Index Value
STOP    .M        48.1000                       :Last Index Value
STEP    .M        -0.1000                       :Frame Spacing
NULL    .         -999.2500                     :Absent Value
WELL    .         L07-04                        :Well Name   
FLD     .         UNKNOWN                       :Field Name  
CNTY    .                                       :County
STAT    .                                       :State
CTRY    .                                       :Country
LOC     .                                       :Location
API     .                                       :API Number
DATE    .                                       :Date
COMP    .         PETROLAND                     :Company Name
SRVC    .                                       :Service Company
~Parameter Information
#MNEM   .UNITS    VALUE                          DESCRIPTION
#----   ------    -----                          -----------
TDD     .M        4182.00000                    :Total Depth (Driller)   
UBID    .         7265                          :Unique Borehole Id  
PDAT    .         Mean Sea Level                :Permanent Datum 
EPD     .M           0.00000                    :Elevation of Permanent Datum (PDAT) above Mean Sea Level
LMF     .         Rotary Table                  :Logging Measured From (Name of Logging Elevation Reference) 
APD     .M          30.50000                    :Elevation of Depth Reference (LMF) Above Permanent Datum
EGL     .M         -34.30000                    :Elevation of Ground Level Above Mean Sea Level  
~Curve Information
#MNEM   .UNITS    API CODE                       CURVE DESCRIPTION
#----   ------    --------                       -----------------
DEPT    .M                                      :1     Index curve
GR      .GAPI                                   :2     L07-04
DT      .US/F                                   :3     L07-04
RHOB    .G/C3                                   :4     L07-04
DRHO    .G/C3                                   :5     L07-04
NPHI    .V/V                                    :6     L07-04
~Ascii Log Data
# ...
    3913.2002     84.902130     63.803329      2.696190      0.034651      0.111571
    3913.1002     84.840012     63.653709      2.695850      0.041312      0.109342
    3913.0002     85.449158     63.812698      2.692674      0.040657      0.108399
    3912.9002     86.881714     64.182068      2.686488      0.033858      0.108133
    3912.8002     88.313828     64.595551      2.674504      0.019922      0.107855
    3912.7002     87.633301     65.071686      2.663349      0.006488      0.107780
    3912.6002     83.761475     65.634888      2.661364      0.001065      0.108386
    3912.5002     77.649887     66.080688      2.666794      0.002590      0.108839
    3912.4002     69.769333     66.100433      2.673706      0.012789      0.106484
    3912.3002     61.808693     65.714157      2.676511      0.027852      0.100196
    3912.2002     57.203598     65.413193      2.673772      0.036544      0.092263
    3912.1002     58.663399     65.574234      2.670241      0.042150      0.084884
    3912.0002     67.280975     66.166367      2.670288      0.052689      0.080455
    3911.9002     81.654938     66.883240      2.671685      0.062531      0.082469
    3911.8002     95.076248     67.575012      2.673883      0.063576      0.094081
    3911.7002    101.644501     68.201660      2.678982      0.056702      0.112284
    3911.6002    103.776291     68.523529      2.685540      0.048905      0.128895
    3911.5002    103.202286     68.092041      2.684197      0.037309      0.141318
    3911.4002    100.073257     66.875580      2.670205      0.018102      0.152028
    3911.3002     95.507019     65.562973      2.658304      0.004977      0.157987
    3911.2002     90.772873     64.630722      2.663572      0.008388      0.155815
    3911.1002     86.877914     63.984810      2.683568      0.019331      0.147667
    3911.0002     84.707382     63.526756      2.700666      0.019955      0.138004
    3910.9002     83.938812     63.203506      2.703458      0.007897      0.130032
    3910.8002     82.626129     62.965637      2.697495      0.001352      0.123465
    3910.7002     80.769897     62.948273      2.685395      0.000325      0.118048
    3910.6002     79.257034     63.133392      2.673218      0.000229      0.113965
    3910.5002     78.866562     63.211388      2.669988      0.000204      0.111447
    3910.4002     79.133087     63.204231      2.669130      0.000182      0.109776
    3910.3002     79.125656     63.279381      2.662015      0.000163      0.108284
    3910.2002     78.516449     63.523376      2.651864      0.000199      0.107426
    3910.1002     77.887314     63.676620      2.644783      0.000237      0.107168
    3910.0002     78.158279     63.601822      2.645874      0.000230      0.107478
    3909.9002     79.206696     63.809654      2.650574      0.001456      0.108863
    3909.8002     79.964142     64.016113      2.661757      0.009982      0.110771
    3909.7002     79.566467     63.805634      2.678785      0.027729      0.112048
    3909.6002     79.964600     63.729355      2.685070      0.035904      0.112264
    3909.5002     81.402344     64.046265      2.677963      0.027772      0.110961
    3909.4002     83.675323     64.873886      2.667635      0.010274      0.108605
    3909.3002     87.911682     66.151123      2.663674      0.000197      0.107181
    3909.2002     94.824295     67.931366      2.667192      0.000275      0.108073
    3909.1002    102.973892     69.802795      2.670130      0.000361      0.111650
    3909.0002    111.490356     71.297928      2.671979      0.000378      0.118027
    3908.9002    118.148529     72.165710      2.674884      0.000611      0.128140
    3908.8002    119.759308     72.528122      2.682443      0.003201      0.140676
    3908.7002    118.220551     72.344376      2.692148      0.012489      0.153953
    3908.6002    116.116348     71.819107      2.700526      0.021203      0.165963
    3908.5002    116.207077     71.584305      2.703793      0.011427      0.174376
    3908.4002    117.654999     71.545578      2.702918      0.000482      0.180992
    3908.3002    119.182724     71.498230      2.698862      0.000409      0.188645
    3908.2002    119.510956     71.299042      2.693049      0.000366      0.197685
    3908.1002    117.452820     71.121048      2.688375      0.000317      0.204914
    3908.0002    112.897186     70.755112      2.687163      0.000286      0.206415
    3907.9002    107.958115     69.566574      2.686779      0.000260      0.203208
    3907.8002    103.500931     68.171249      2.687044      0.000220      0.196413
    3907.7002    100.471970     67.490082      2.685565      0.000164      0.188440
    3907.6002     98.675873     67.344513      2.678933      0.000123      0.179831
    3907.5002     97.706024     67.116074      2.670993      0.000107      0.170374
    3907.4002     96.508469     66.467163      2.668571      0.000119      0.161071
    3907.3002     94.113663     66.052429      2.671357      0.000161      0.153143
    3907.2002     90.899689     65.872787      2.675113      0.000206      0.146491
    3907.1002     87.837234     65.508469      2.677198      0.000744      0.139800
    3907.0002     85.066116     64.882614      2.683644      0.005591      0.132723
    3906.9002     83.512253     64.237167      2.695040      0.021605      0.125856
    3906.8002     83.374985     63.872368      2.704539      0.043384      0.120110
    3906.7002     83.313248     63.726517      2.705914      0.051592      0.115806
    3906.6002     82.963181     63.767639      2.698999      0.044892      0.112964
    3906.5002     82.709595     63.875046      2.691393      0.039076      0.111099
    3906.4002     82.184143     63.832176      2.688618      0.037958      0.110260
    3906.3002     80.981873     63.641975      2.690285      0.039469      0.110121
    3906.2002     79.399170     63.531822      2.691802      0.041255      0.110122
    3906.1002     78.576706     63.609131      2.692594      0.045159      0.110116
    3906.0002     79.532578     63.844734      2.693675      0.049650      0.110255
    3905.9002     82.121857     64.184128      2.694447      0.049584      0.110754
    3905.8002     85.193024     64.586243      2.692849      0.041907      0.111640
    3905.7002     87.725739     64.853546      2.690690      0.027788      0.113037
    3905.6002     89.496887     64.890610      2.689540      0.012744      0.114948
    3905.5002     90.348511     64.917496      2.685700      0.003464      0.116720
    3905.4002     90.415680     65.047241      2.678198      0.000619      0.117527
    3905.3002     90.230026     65.089966      2.669444      0.000273      0.117164
    3905.2002     90.301468     64.894821      2.659847      0.000245      0.116472
    3905.1002     90.135620     64.524200      2.652014      0.000215      0.116565
    3905.0002     89.295837     64.173737      2.649411      0.000187      0.117580
    3904.9002     88.807526     64.079575      2.649890      0.000185      0.118394
    3904.8002     89.702820     64.626480      2.650176      0.000190      0.117810
    3904.7002     92.397247     66.059830      2.648946      0.000157      0.115890
    3904.6002     97.272339     68.088013      2.644713      0.000099      0.114972
    3904.5002    103.597702     70.221436      2.638467      0.000071      0.120027
    3904.4002    109.790039     72.250580      2.634851      0.000094      0.134313
    3904.3002    114.790085     74.026489      2.637473      0.001437      0.155477
    3904.2002    118.302444     75.197342      2.643489      0.008580      0.178867
    3904.1002    120.248703     75.417419      2.648623      0.025135      0.200761
    3904.0002    120.171799     74.608276      2.654431      0.048010      0.216849
    3903.9002    117.700867     73.049957      2.662958      0.069437      0.224053
    3903.8002    113.426575     71.196182      2.670886      0.082206      0.222390
    3903.7002    108.609589     69.377899      2.673029      0.082738      0.213119
