# LAS format data
~Version Information
VERS.     2.00: CWLS LOG ASCII STANDARD - VERSION 2.0
WRAP.       NO: ONE LINE PER DEPTH STEP
~Well Information
#MNEM   .UNITS    DATA                           DESCRIPTION
#----   ------    ----                           -----------
STRT    .M        4182.0000                     :First Index Value
STOP    .M        48.1000                       :Last Index Value
STEP    .M        -0.1000                       :Frame Spacing
NULL    .         -999.2500                     :Absent Value
WELL    .         L07-04                        :Well Name   
FLD     .         UNKNOWN                       :Field Name  
CNTY    .                                       :County
STAT    .                                       :State
CTRY    .                                       :Country
LOC     .                                       :Location
API     .                                       :API Number
DATE    .                                       :Date
COMP    .         PETROLAND                     :Company Name
SRVC    .                                       :Service Company
~Parameter Information
#MNEM   .UNITS    VALUE                          DESCRIPTION
#----   ------    -----                          -----------
TDD     .M        4182.00000                    :Total Depth (Driller)   
UBID    .         7265                          :Unique Borehole Id  
PDAT    .         Mean Sea Level                :Permanent Datum 
EPD     .M           0.00000                    :Elevation of Permanent Datum (PDAT) above Mean Sea Level
LMF     .         Rotary Table                  :Logging Measured From (Name of Logging Elevation Reference) 
APD     .M          30.50000                    :Elevation of Depth Reference (LMF) Above Permanent Datum
EGL     .M         -34.30000                    :Elevation of Ground Level Above Mean Sea Level  
~Curve Information
#MNEM   .UNITS    API CODE                       CURVE DESCRIPTION
#----   ------    --------                       -----------------
DEPT    .M                                      :1     Index curve
GR      .GAPI                                   :2     L07-04
DT      .US/F                                   :3     L07-04
RHOB    .G/C3                                   :4     L07-04
DRHO    .G/C3                                   :5     L07-04
NPHI    .V/V                                    :6     L07-04
~Ascii Log Data
# ...
    3980.4003     66.506271     71.270782      2.572273      0.068898      0.128298
    3980.3003     69.521439     71.737717      2.589728      0.088752      0.124179
    3980.2003     68.255920     71.960327      2.587059      0.116770      0.121730
    3980.1003     63.584320     71.603317      2.567585      0.152184      0.124135
    3980.0003     57.827499     71.189850      2.552335      0.184927      0.132084
    3979.9003     52.297821     71.224701      2.548973      0.205184      0.140438
    3979.8003     48.052818     71.683334      2.548484      0.200958      0.143435
    3979.7003     46.794296     72.129608      2.542293      0.166447      0.141907
    3979.6003     49.528427     72.356247      2.531627      0.118532      0.138222
    3979.5003     54.993706     72.429169      2.521377      0.076745      0.134773
    3979.4003     60.433296     72.419266      2.509994      0.039855      0.133695
    3979.3003     63.322235     72.458313      2.497997      0.013423      0.136160
    3979.2003     63.089951     72.425079      2.487747      0.003389      0.141115
    3979.1003     60.693855     72.001602      2.480817      0.005447      0.146134
    3979.0003     57.904045     71.402145      2.480693      0.017224      0.149238
    3978.9003     56.230698     71.168106      2.489812      0.033994      0.150081
    3978.8003     56.376396     71.369186      2.505728      0.043807      0.149201
    3978.7003     58.386467     71.635803      2.523755      0.044287      0.147928
    3978.6003     62.484360     71.858826      2.539715      0.038645      0.148161
    3978.5003     68.236496     72.401016      2.548673      0.025256      0.150885
    3978.4003     72.986191     73.476913      2.547046      0.009845      0.154678
    3978.3003     73.233536     74.811386      2.535496      0.002153      0.158781
    3978.2003     68.416595     75.989151      2.518909      0.001525      0.164057
    3978.1003     61.537041     76.918869      2.501073      0.002995      0.167880
    3978.0000     55.466736     78.073166      2.484147      0.008220      0.167173
    3977.9000     50.305611     80.019196      2.469041      0.020683      0.164519
    3977.8000     46.386215     82.348297      2.452690      0.033030      0.163039
    3977.7000     45.915161     84.023346      2.432143      0.033410      0.162047
    3977.6000     50.033638     84.662643      2.411986      0.021848      0.160060
    3977.5000     56.419891     84.628189      2.403700      0.008818      0.157583
    3977.4000     61.092804     84.805618      2.409680      0.002012      0.156154
    3977.3000     61.863480     86.010162      2.416719      0.001678      0.156733
    3977.2000     58.703148     87.725601      2.413562      0.007291      0.160051
    3977.1000     52.867310     88.653381      2.403602      0.015385      0.165590
    3977.0000     46.454948     88.229935      2.397983      0.016254      0.170357
    3976.9000     41.265793     86.646362      2.403125      0.008978      0.171658
    3976.8000     37.860413     84.335739      2.415948      0.002561      0.170005
    3976.7000     35.791168     81.963455      2.428260      0.000534      0.168027
    3976.6000     34.383163     80.229813      2.434339      0.000303      0.166967
    3976.5000     33.144211     79.330215      2.434687      0.000220      0.165909
    3976.4000     31.971405     78.860931      2.432229      0.000092      0.163942
    3976.3000     31.130272     78.413330      2.425452     -0.000028      0.161458
    3976.2000     30.776638     77.931534      2.412401     -0.000075      0.160032
    3976.1000     30.709179     77.591003      2.399169      0.001001      0.161593
    3976.0000     30.916378     77.546661      2.388142      0.006945      0.165828
    3975.9000     31.725368     77.635956      2.373985      0.021302      0.169894
    3975.8000     33.290787     77.289902      2.360474      0.041269      0.171577
    3975.7000     36.115837     76.472397      2.352507      0.062469      0.170627
    3975.6000     41.418907     75.806854      2.347314      0.085733      0.168540
    3975.5000     49.670609     75.169235      2.345345      0.112730      0.168134
    3975.4000     58.816780     74.224670      2.337447      0.136096      0.169609
    3975.3000     64.231018     73.586548      2.304498      0.139717      0.169070
    3975.2000     63.769119     73.764206      2.259407      0.126177      0.166736
    3975.1000     58.795166     74.540558      2.234525      0.117616      0.168638
    3975.0000     52.318275     75.182388      2.233711      0.129657      0.179625
    3974.9000     46.668442     75.281479      2.234628      0.152462      0.195035
    3974.8000     42.775383     74.909409      2.215840      0.166020      0.202896
    3974.7000     40.105515     74.387466      2.188872      0.171116      0.196802
    3974.6000     38.719254     74.111679      2.170900      0.169658      0.180774
    3974.5000     39.335976     74.161804      2.168196      0.159862      0.165653
    3974.4000     41.843636     73.957397      2.177955      0.149563      0.154761
    3974.3000     45.607712     73.498810      2.202423      0.151057      0.146756
    3974.2000     49.793297     73.593353      2.243752      0.167754      0.139386
    3974.1000     55.128342     74.036697      2.294114      0.184672      0.134602
    3974.0000     61.042992     74.281937      2.348658      0.188764      0.136158
    3973.9000     64.358047     74.165054      2.402933      0.183061      0.144525
    3973.8000     65.314285     74.268051      2.437263      0.168054      0.155035
    3973.7000     65.575638     74.769318      2.439668      0.151746      0.161595
    3973.6000     66.782257     74.592712      2.435438      0.152394      0.162405
    3973.5000     71.052383     73.774918      2.445656      0.164894      0.158267
    3973.4000     78.826096     73.036621      2.471509      0.167879      0.152575
    3973.3000     86.157867     72.898361      2.468767      0.147751      0.147874
    3973.2000     92.667175     73.062607      2.441046      0.113516      0.144795
    3973.1000     98.826126     72.748245      2.432754      0.100498      0.144301
    3973.0000    104.591934     71.907913      2.476007      0.128222      0.147937
    3972.9000    108.419815     70.584976      2.550864      0.176191      0.154947
    3972.8000    108.277206     69.539261      2.591786      0.187896      0.160830
    3972.7000    106.331223     69.605637      2.621939      0.174778      0.165648
    3972.6000    105.214554     70.575714      2.642796      0.143638      0.171188
    3972.5000    107.668472     71.112518      2.648684      0.110501      0.181685
    3972.4000    112.416855     71.880997      2.640235      0.075793      0.200964
    3972.3000    117.542999     73.070358      2.625729      0.054211      0.224914
    3972.2000    120.968552     74.159698      2.617637      0.059763      0.241287
    3972.1000    123.334579     74.925476      2.591506      0.077007      0.252272
    3972.0000    124.494736     75.152908      2.543603      0.089384      0.257377
    3971.9000    123.624298     74.998932      2.510822      0.092946      0.256131
    3971.8000    119.010056     74.145920      2.495976      0.099354      0.247828
    3971.7000    111.024261     72.564911      2.495595      0.114847      0.232095
    3971.6000    103.795380     70.827545      2.493975      0.128579      0.209920
    3971.5000     98.813110     69.237076      2.493646      0.141441      0.187194
    3971.4000     96.103027     68.054901      2.495634      0.153610      0.172281
    3971.3000     93.216766     67.234482      2.498439      0.158630      0.166629
    3971.2000     89.941193     66.967300      2.510327      0.142976      0.164711
    3971.1000     87.001953     67.157959      2.533687      0.108240      0.158921
    3971.0000     85.751999     67.399170      2.555427      0.079533      0.152189
    3970.9000     86.861023     67.526047      2.570757      0.060105      0.147578
