# LAS format data
~Version Information
VERS.     2.00: CWLS LOG ASCII STANDARD - VERSION 2.0
WRAP.       NO: ONE LINE PER DEPTH STEP
~Well Information
#MNEM   .UNITS    DATA                           DESCRIPTION
#----   ------    ----                           -----------
STRT    .M        4182.0000                     :First Index Value
STOP    .M        48.1000                       :Last Index Value
STEP    .M        -0.1000                       :Frame Spacing
NULL    .         -999.2500                     :Absent Value
WELL    .         L07-04                        :Well Name   
FLD     .         UNKNOWN                       :Field Name  
CNTY    .                                       :County
STAT    .                                       :State
CTRY    .                                       :Country
LOC     .                                       :Location
API     .                                       :API Number
DATE    .                                       :Date
COMP    .         PETROLAND                     :Company Name
SRVC    .                                       :Service Company
~Parameter Information
#MNEM   .UNITS    VALUE                          DESCRIPTION
#----   ------    -----                          -----------
TDD     .M        4182.00000                    :Total Depth (Driller)   
UBID    .         7265                          :Unique Borehole Id  
PDAT    .         Mean Sea Level                :Permanent Datum 
EPD     .M           0.00000                    :Elevation of Permanent Datum (PDAT) above Mean Sea Level
LMF     .         Rotary Table                  :Logging Measured From (Name of Logging Elevation Reference) 
APD     .M          30.50000                    :Elevation of Depth Reference (LMF) Above Permanent Datum
EGL     .M         -34.30000                    :Elevation of Ground Level Above Mean Sea Level  
~Curve Information
#MNEM   .UNITS    API CODE                       CURVE DESCRIPTION
#----   ------    --------                       -----------------
DEPT    .M                                      :1     Index curve
GR      .GAPI                                   :2     L07-04
DT      .US/F                                   :3     L07-04
RHOB    .G/C3                                   :4     L07-04
DRHO    .G/C3                                   :5     L07-04
NPHI    .V/V                                    :6     L07-04
~Ascii Log Data
# ...
    3682.8004    109.927170     71.523331      2.672523      0.128066      0.200164
    3682.7004    109.523468     70.978806      2.669108      0.106641      0.196077
    3682.6004    109.351425     70.458847      2.675420      0.093154      0.191413
    3682.5004    109.868073     70.038956      2.686980      0.085514      0.187568
    3682.4004    111.001587     69.760910      2.689939      0.079092      0.185455
    3682.3004    112.293396     69.701004      2.682478      0.070507      0.184875
    3682.2004    113.373917     69.944397      2.673850      0.060264      0.185411
    3682.1004    113.943436     70.464905      2.666902      0.053581      0.187354
    3682.0004    113.518707     71.079803      2.660352      0.051241      0.190119
    3681.9004    111.917542     71.622696      2.658809      0.053380      0.191986
    3681.8004    109.779541     72.031113      2.670650      0.066882      0.191734
    3681.7004    107.852234     72.177811      2.696200      0.091343      0.189304
    3681.6004    106.417664     71.885086      2.726610      0.116383      0.184932
    3681.5004    105.537262     71.164932      2.751244      0.134050      0.178943
    3681.4004    105.159653     70.264175      2.759343      0.137999      0.173156
    3681.3004    105.148819     69.503525      2.748538      0.127668      0.170418
    3681.2004    105.382492     69.014725      2.733966      0.117067      0.171238
    3681.1004    105.788376     68.794281      2.729330      0.116307      0.173551
    3681.0004    106.263367     68.812347      2.730066      0.118107      0.175109
    3680.9004    106.701111     69.026947      2.722540      0.111039      0.175900
    3680.8004    107.001419     69.413101      2.705357      0.093796      0.176819
    3680.7004    107.010437     69.907166      2.689867      0.074553      0.177777
    3680.6004    106.435165     70.342529      2.676979      0.057220      0.178087
    3680.5004    105.236206     70.558105      2.663329      0.039956      0.177603
    3680.4004    103.869354     70.579956      2.655221      0.024053      0.177075
    3680.3004    102.908173     70.468460      2.662485      0.023285      0.176891
    3680.2004    102.851791     70.264511      2.681942      0.041438      0.176264
    3680.1004    103.768433     69.990677      2.694388      0.057199      0.174460
    3680.0004    105.180115     69.693420      2.687898      0.059007      0.173536
    3679.9004    106.400650     69.468002      2.669037      0.052687      0.175574
    3679.8004    107.273758     69.374100      2.656624      0.049580      0.178479
    3679.7004    107.565811     69.382141      2.663593      0.061571      0.180190
    3679.6004    107.038177     69.410080      2.681480      0.085274      0.180470
    3679.5004    105.890549     69.461166      2.684289      0.094328      0.180169
    3679.4004    104.556580     69.562668      2.668903      0.082024      0.179990
    3679.3004    103.528976     69.698395      2.661084      0.071732      0.180290
    3679.2004    102.950134     69.802628      2.670895      0.075807      0.181210
    3679.1004    102.617188     69.799484      2.690108      0.095331      0.181854
    3679.0004    102.018616     69.694550      2.697416      0.116939      0.180946
    3678.9004    101.077316     69.573502      2.685968      0.123487      0.179274
    3678.8004    100.207611     69.465195      2.662537      0.107538      0.177562
    3678.7004    100.021942     69.281601      2.645462      0.086120      0.175074
    3678.6004    100.467072     69.111115      2.639410      0.070738      0.171735
    3678.5004    101.296082     69.087723      2.648975      0.070715      0.168771
    3678.4004    102.416107     69.202927      2.677950      0.084591      0.168428
    3678.3004    103.515198     69.347076      2.707632      0.104720      0.171100
    3678.2004    104.073792     69.422256      2.716008      0.119062      0.175264
    3678.1004    103.842194     69.546509      2.715593      0.126354      0.178519
    3678.0004    103.144272     69.654129      2.719357      0.128197      0.179987
    3677.9004    103.073242     69.649216      2.737225      0.127748      0.180077
    3677.8004    104.453522     69.644669      2.746889      0.119531      0.180257
    3677.7004    106.649063     69.617950      2.736669      0.102727      0.181000
    3677.6004    108.129425     69.556976      2.710405      0.084533      0.182735
    3677.5004    109.308609     69.675598      2.695332      0.078121      0.186386
    3677.4004    110.161774     70.020065      2.698780      0.088679      0.192045
    3677.3004    110.551437     70.388733      2.709155      0.110586      0.197746
    3677.2004    110.596283     70.580994      2.727445      0.142954      0.200844
    3677.1004    110.401764     70.470978      2.746073      0.171919      0.200416
    3677.0004    110.084122     70.188477      2.749125      0.174719      0.199145
    3676.9004    109.436768     69.968994      2.736520      0.158941      0.198481
    3676.8004    108.393951     69.953781      2.715363      0.136710      0.198241
    3676.7004    107.373764     69.996918      2.701266      0.121247      0.195998
    3676.6004    106.461655     69.972809      2.683232      0.099702      0.192485
    3676.5004    105.786789     69.793549      2.662749      0.070834      0.188384
    3676.4004    105.499588     69.553879      2.663833      0.059745      0.184108
    3676.3004    105.710403     69.226593      2.674757      0.062302      0.180279
    3676.2004    106.506378     68.824127      2.678327      0.069963      0.177624
    3676.1004    107.706192     68.510300      2.674249      0.080866      0.176803
    3676.0004    108.727341     68.445221      2.673978      0.099972      0.178097
    3675.9004    108.939697     68.734833      2.678840      0.124759      0.181203
    3675.8004    108.628922     69.245316      2.668172      0.140010      0.185281
    3675.7004    108.141205     69.859573      2.652189      0.141358      0.189513
    3675.6004    108.045532     70.368637      2.648165      0.137490      0.192651
    3675.5004    108.638702     70.685501      2.649155      0.143715      0.194173
    3675.4004    109.710449     70.902634      2.646017      0.155510      0.193981
    3675.3004    110.540100     71.152588      2.636837      0.159881      0.192825
    3675.2004    110.811874     71.429276      2.635331      0.161290   -999.250000
    3675.1004    110.916718     71.749420      2.650323      0.171684   -999.250000
    3675.0004    111.345566     72.032990   -999.250000   -999.250000   -999.250000
    3674.9004    111.618790     72.098541   -999.250000   -999.250000   -999.250000
    3674.8004    111.077744     71.907654   -999.250000   -999.250000   -999.250000
    3674.7004    109.588181     71.550705   -999.250000   -999.250000   -999.250000
    3674.6004    107.638153     71.000992   -999.250000   -999.250000   -999.250000
    3674.5004    105.696579     70.376724   -999.250000   -999.250000   -999.250000
    3674.4004    103.885284     69.916626   -999.250000   -999.250000   -999.250000
    3674.3004    102.177032     69.716751   -999.250000   -999.250000   -999.250000
    3674.2004    100.421158     69.607559   -999.250000   -999.250000   -999.250000
    3674.1004     98.617401     69.356445   -999.250000   -999.250000   -999.250000
    3674.0004     97.348770     69.024582   -999.250000   -999.250000   -999.250000
    3673.9004     97.129211     68.720932   -999.250000   -999.250000   -999.250000
    3673.8004     98.147919     68.470642   -999.250000   -999.250000   -999.250000
    3673.7004    100.370026     68.307816   -999.250000   -999.250000   -999.250000
    3673.6004    103.435425     68.276672   -999.250000   -999.250000   -999.250000
    3673.5004    106.667267     68.386353   -999.250000   -999.250000   -999.250000
    3673.4004    109.277969     68.605438   -999.250000   -999.250000   -999.250000
    3673.3004    110.949478     68.960602   -999.250000   -999.250000   -999.250000
