# LAS format data
~Version Information
VERS.     2.00: CWLS LOG ASCII STANDARD - VERSION 2.0
WRAP.       NO: ONE LINE PER DEPTH STEP
~Well Information
#MNEM   .UNITS    DATA                           DESCRIPTION
#----   ------    ----                           -----------
STRT    .M        4182.0000                     :First Index Value
STOP    .M        48.1000                       :Last Index Value
STEP    .M        -0.1000                       :Frame Spacing
NULL    .         -999.2500                     :Absent Value
WELL    .         L07-04                        :Well Name   
FLD     .         UNKNOWN                       :Field Name  
CNTY    .                                       :County
STAT    .                                       :State
CTRY    .                                       :Country
LOC     .                                       :Location
API     .                                       :API Number
DATE    .                                       :Date
COMP    .         PETROLAND                     :Company Name
SRVC    .                                       :Service Company
~Parameter Information
#MNEM   .UNITS    VALUE                          DESCRIPTION
#----   ------    -----                          -----------
TDD     .M        4182.00000                    :Total Depth (Driller)   
UBID    .         7265                          :Unique Borehole Id  
PDAT    .         Mean Sea Level                :Permanent Datum 
EPD     .M           0.00000                    :Elevation of Permanent Datum (PDAT) above Mean Sea Level
LMF     .         Rotary Table                  :Logging Measured From (Name of Logging Elevation Reference) 
APD     .M          30.50000                    :Elevation of Depth Reference (LMF) Above Permanent Datum
EGL     .M         -34.30000                    :Elevation of Ground Level Above Mean Sea Level  
~Curve Information
#MNEM   .UNITS    API CODE                       CURVE DESCRIPTION
#----   ------    --------                       -----------------
DEPT    .M                                      :1     Index curve
GR      .GAPI                                   :2     L07-04
DT      .US/F                                   :3     L07-04
RHOB    .G/C3                                   :4     L07-04
DRHO    .G/C3                                   :5     L07-04
NPHI    .V/V                                    :6     L07-04
~Ascii Log Data
    4182.0000   -999.250000   -999.250000   -999.250000   -999.250000   -999.250000
    4181.9000   -999.250000   -999.250000   -999.250000   -999.250000   -999.250000
    4181.8000    123.903946     66.158508      2.783551      0.084034      0.225828
    4181.7000    128.024231     67.131531      2.784466      0.085167      0.226879
    4181.6000    130.524048     67.779739      2.790523      0.092892      0.229286
    4181.5000    131.601654     68.213104      2.786803      0.096060      0.231687
    4181.4000    133.247681     68.521027      2.765043      0.083245      0.232939
    4181.3000    135.139893     68.510071      2.748501      0.066209      0.233690
    4181.2000    136.842560     68.295883      2.748640      0.052902      0.232709
    4181.1000    138.180298     68.348846      2.749694      0.037397      0.227839
    4181.0000    138.863800     68.843918      2.743457      0.018263      0.221263
    4180.9000    138.975861     69.534744      2.735161      0.003916      0.216534
    4180.8000    138.504517     70.053925      2.736612      0.000448      0.213642
    4180.7000    136.752716     70.488739      2.742704      0.000159      0.211708
    4180.6000    134.590759     70.915161      2.750314      0.000163      0.210252
    4180.5000    133.765533     71.346909      2.754227      0.000150      0.208443
    4180.4000    134.139130     71.616302      2.749809      0.000151      0.205282
    4180.3000    134.499207     71.486145      2.743484      0.000926      0.199687
    4180.2000    132.947052     70.818497      2.744959      0.006505      0.190811
    4180.1000    128.271851     69.578629      2.749189      0.021474      0.178201
    4180.0000    121.327423     67.810593      2.746840      0.038818      0.161627
    4179.9000    114.497650     65.639023      2.736841      0.045274      0.142798
    4179.8000    109.479645     63.321617      2.724711      0.040332      0.126479
    4179.7000    107.363861     61.229012      2.716218      0.028512      0.116122
    4179.6000    108.987747     59.792152      2.711942      0.013208      0.111598
    4179.5000    113.362732     59.241646      2.710377      0.004323      0.111939
    4179.4000    118.098068     59.907082      2.714545      0.007713      0.117959
    4179.3000    121.264084     61.950264      2.724504      0.016346      0.129876
    4179.2000    122.534683     64.352570      2.728297      0.017082      0.143639
    4179.1000    123.045914     66.044281      2.721870      0.009424      0.156578
    4179.0000    123.753006     66.920273      2.716891      0.006852      0.169309
    4178.9000    124.450790     67.201981      2.721086      0.015242      0.180302
    4178.8000    124.760010     67.137131      2.729097      0.027612      0.187912
    4178.7000    125.294678     66.852631      2.733043      0.035655      0.192569
    4178.6000    127.041122     66.428665      2.735049      0.038863      0.195171
    4178.5000    129.390259     66.033676      2.739923      0.040818      0.196350
    4178.4000    130.697815     65.953384      2.743203      0.041812      0.196637
    4178.3000    131.107544     66.422852      2.738656      0.040336      0.196677
    4178.2000    131.587250     67.357956      2.733159      0.037263      0.197445
    4178.1000    132.054230     68.355087      2.736450      0.035442      0.199556
    4178.0000    132.303864     69.015640      2.742297      0.035390      0.202738
    4177.9000    132.201660     69.249741      2.743209      0.031762      0.206584
    4177.8000    130.857086     69.249634      2.740783      0.022346      0.210954
    4177.7000    126.325760     69.083923      2.732599      0.016961      0.215577
    4177.6000    117.297348     68.662567      2.718296      0.018647      0.219550
    4177.5000    104.287140     67.980728      2.706006      0.016070      0.221911
    4177.4000     88.113937     67.108398      2.699206      0.007791      0.222085
    4177.3000     70.740570     66.167938      2.697018      0.001974      0.220182
    4177.2000     56.165024     65.327377      2.698905      0.000354      0.217070
    4177.1000     47.247643     64.709778      2.697859      0.001200      0.213732
    4177.0000     42.035172     64.350769      2.683615      0.007131      0.209759
    4176.9000     37.432915     64.316299      2.655012      0.021214      0.203822
    4176.8000     33.455360     64.618500      2.624445      0.037506      0.195882
    4176.7000     31.037502     65.126480      2.600904      0.047084      0.186264
    4176.6000     29.536743     65.625137      2.581593      0.048153      0.174757
    4176.5000     28.238224     65.944763      2.566048      0.045825      0.162061
    4176.4000     27.186638     66.124054      2.554169      0.043926      0.149777
    4176.3000     26.332211     66.386292      2.537652      0.040525      0.139273
    4176.2000     25.325611     66.733551      2.518786      0.036135      0.131849
    4176.1000     23.991604     66.975311      2.508593      0.032530      0.127848
    4176.0000     22.738365     67.110519      2.504130      0.024249      0.125346
    4175.9000     21.981133     67.169357      2.498455      0.011688      0.122983
    4175.8000     21.426392     67.086212      2.491954      0.007042      0.121416
    4175.7000     20.424751     66.851730      2.485878      0.014188      0.121372
    4175.6000     19.020081     66.473145      2.481238      0.026647      0.123090
    4175.5000     17.806469     66.047455      2.478489      0.035865      0.126042
    4175.4000     16.808601     65.844574      2.475482      0.039116      0.128878
    4175.3000     15.910662     66.026749      2.472152      0.038192      0.130860
    4175.2000     15.422989     66.435669      2.472169      0.036342      0.132749
    4175.1000     15.542231     66.802353      2.475085      0.036804      0.135487
    4175.0000     16.173344     66.962616      2.477873      0.040715      0.139093
    4174.9000     17.106857     67.046326      2.478600      0.042488      0.142070
    4174.8000     17.936089     67.174377      2.471845      0.031936      0.143159
    4174.7000     18.113071     67.342087      2.458009      0.012145      0.142314
    4174.6000     17.759995     67.427704      2.447459      0.002189      0.140643
    4174.5000     17.140114     67.421722      2.440760      0.001305      0.138682
    4174.4000     16.530491     67.346542      2.435755      0.007193      0.136915
    4174.3000     16.268745     67.218262      2.432285      0.019828      0.135783
    4174.2000     16.851967     66.981857      2.434162      0.026005      0.135154
    4174.1000     18.649437     66.628845      2.442497      0.017577      0.134969
    4174.0000     21.170452     66.326797      2.448710      0.015571      0.135612
    4173.9000     23.714920     66.212753      2.455145      0.020494      0.137316
    4173.8000     25.874710     66.283020      2.471159      0.012241      0.139756
    4173.7000     27.292118     66.488922      2.484930      0.002152      0.141808
    4173.6000     27.742432     66.782272      2.488400      0.007944      0.142121
    4173.5000     27.471878     67.246628      2.495916      0.026990      0.140762
    4173.4000     26.387314     67.890457      2.500649      0.045083      0.138498
    4173.3000     25.099331     68.419861      2.495972      0.043651      0.138346
    4173.2000     24.152802     68.713715      2.496243      0.041856      0.140840
    4173.1000     23.963173     69.023590      2.496098      0.039726      0.143003
    4173.0000     24.452011     69.425034      2.495718      0.038813      0.144150
    4172.9000     24.256985     69.810898      2.500361      0.041852      0.146223
    4172.8000     24.203934     70.050598      2.506297      0.045856      0.148084
    4172.7000     24.915451     69.957581      2.510181      0.047228      0.148945
    4172.6000     25.841431     69.534348      2.511340      0.042742      0.149409
    4172.5000     26.203190     69.222183      2.510588      0.030589      0.148960
