# LAS format data
~Version Information
VERS.     2.00: CWLS LOG ASCII STANDARD - VERSION 2.0
WRAP.       NO: ONE LINE PER DEPTH STEP
~Well Information
#MNEM   .UNITS    DATA                           DESCRIPTION
#----   ------    ----                           -----------
STRT    .M        3881.9004                     :First Index Value
STOP    .M        50.2002                       :Last Index Value
STEP    .M        -0.1000                       :Frame Spacing
NULL    .         -999.2500                     :Absent Value
WELL    .         L07-05                        :Well Name   
FLD     .         UNKNOWN                       :Field Name  
CNTY    .                                       :County
STAT    .                                       :State
CTRY    .                                       :Country
LOC     .                                       :Location
API     .                                       :API Number
DATE    .                                       :Date
COMP    .         PETROLAND                     :Company Name
SRVC    .                                       :Service Company
~Parameter Information
#MNEM   .UNITS    VALUE                          DESCRIPTION
#----   ------    -----                          -----------
TDL     .M          3883.000                    :Total Depth (Logger)
TDD     .M          3886.000                    :Total Depth (Driller)   
UBID    .         7266                          :Unique Borehole Id  
PDAT    .         Mean Sea Level                :Permanent Datum 
EPD     .M           0.00000                    :Elevation of Permanent Datum (PDAT) above Mean Sea Level
LMF     .         Rotary Table                  :Logging Measured From (Name of Logging Elevation Reference) 
APD     .M          31.40000                    :Elevation of Depth Reference (LMF) Above Permanent Datum
EGL     .M         -30.60000                    :Elevation of Ground Level Above Mean Sea Level  
~Curve Information
#MNEM   .UNITS    API CODE                       CURVE DESCRIPTION
#----   ------    --------                       -----------------
DEPT    .M                                      :1     Index curve
GR      .GAPI                                   :2     L07-05
DT      .US/F                                   :3     L07-05
RHOB    .G/C3                                   :4     L07-05
DRHO    .G/C3                                   :5     L07-05
NPHI    .V/V                                    :6     L07-05
~Ascii Log Data
# ...
    3824.3006     23.999340     69.568161      2.516535     -0.000031   -999.250000
    3824.2006     22.634529     69.542191      2.515309     -0.000058   -999.250000
    3824.1006     22.460857     69.533630      2.509974     -0.000085   -999.250000
    3824.0006     22.716915     69.431870      2.502331     -0.000104   -999.250000
    3823.9006     22.760185     69.184341      2.494550     -0.000115   -999.250000
    3823.8006     22.333420     68.869980      2.488362     -0.000122   -999.250000
    3823.7006     21.465038     68.627777      2.484048     -0.000137   -999.250000
    3823.6006     20.385155     68.512192      2.481051     -0.000168   -999.250000
    3823.5006     19.672768     68.499252      2.478978     -0.000201   -999.250000
    3823.4006     20.321602     68.623886      2.477881     -0.000216   -999.250000
    3823.3006     22.782562     68.959579      2.477735     -0.000213   -999.250000
    3823.2006     26.097240     69.500320      2.478482     -0.000195   -999.250000
    3823.1006     28.685078     70.148636      2.479472     -0.000170   -999.250000
    3823.0006     29.803249     70.875107      2.479203     -0.000147   -999.250000
    3822.9006     29.419327     71.680756      2.476290     -0.000145   -999.250000
    3822.8006     28.042439     72.403061      2.470413     -0.000167   -999.250000
    3822.7006     26.491478     72.807297      2.462685     -0.000187   -999.250000
    3822.6006     25.191536     72.822525      2.455499     -0.000184   -999.250000
    3822.5006     23.862953     72.669754      2.450743     -0.000170   -999.250000
    3822.4006     22.548286     72.614563      2.449224     -0.000169   -999.250000
    3822.3006     22.111340     72.740189      2.450198     -0.000181   -999.250000
    3822.2006     22.980854     72.975128      2.451712     -0.000183   -999.250000
    3822.1006     23.994446     73.250778      2.451716     -0.000167   -999.250000
    3822.0006     23.848080     73.522919      2.448923     -0.000142   -999.250000
    3821.9006     22.639351     73.725983      2.443488     -0.000126   -999.250000
    3821.8006     21.306057     73.791840      2.437298     -0.000129   -999.250000
    3821.7006     20.341946     73.765900      2.432710     -0.000225   -999.250000
    3821.6006     19.489834     73.777069      2.431017     -0.000654   -999.250000
    3821.5006     18.799675     73.921585      2.431625     -0.001557   -999.250000
    3821.4006     18.513439     74.173660      2.432623     -0.002381   -999.250000
    3821.3006     18.800854     74.397476      2.432282     -0.002293   -999.250000
    3821.2006     19.737099     74.422852      2.429628     -0.001406   -999.250000
    3821.1006     21.240383     74.155823      2.425566     -0.000532   -999.250000
    3821.0006     22.868332     73.678391      2.422059     -0.000135   -999.250000
    3820.9006     23.883434     73.190613      2.420578     -0.000085   -999.250000
    3820.8006     24.085564     72.837936      2.422044     -0.000058   -999.250000
    3820.7006     23.894913     72.625870      2.426649     -0.000019   -999.250000
    3820.6006     23.540276     72.512711      2.432909     -0.000000   -999.250000
    3820.5006     23.155075     72.526016      2.438576     -0.000048   -999.250000
    3820.4006     22.940453     72.668076      2.441900     -0.000162   -999.250000
    3820.3006     22.792404     72.818710      2.442596     -0.000260   -999.250000
    3820.2006     22.771511     72.831390      2.440886     -0.000282   -999.250000
    3820.1006     23.173813     72.670151      2.437230     -0.000247   -999.250000
    3820.0006     23.809315     72.450775      2.433261     -0.000212   -999.250000
    3819.9006     24.214832     72.313004      2.430265     -0.000212   -999.250000
    3819.8006     24.140644     72.285706      2.428202     -0.000237   -999.250000
    3819.7006     23.538048     72.297256      2.426780     -0.000248   -999.250000
    3819.6006     22.624840     72.302933      2.426272     -0.000227   -999.250000
    3819.5006     21.879223     72.353424      2.426940     -0.000195   -999.250000
    3819.4006     21.941498     72.473007      2.428634     -0.000218   -999.250000
    3819.3006     22.780174     72.561356      2.431298     -0.000666   -999.250000
    3819.2006     23.611366     72.558014      2.434733     -0.001661   -999.250000
    3819.1006     23.821712     72.530151      2.437616     -0.001819   -999.250000
    3819.0006     23.259045     72.573364      2.438579     -0.000875   -999.250000
    3818.9006     22.163338     72.750366      2.437307     -0.000201   -999.250000
    3818.8006     21.296463     73.060089      2.433523     -0.000075   -999.250000
    3818.7006     20.782459     73.435043      2.427764     -0.000081   -999.250000
    3818.6006     20.124939     73.781464      2.421461     -0.000094   -999.250000
    3818.5006     19.417439     74.061920      2.417986      0.000454   -999.250000
    3818.4006     18.871113     74.322693      2.418062      0.001139   -999.250000
    3818.3006     18.505268     74.585068      2.420185      0.000896   -999.250000
    3818.2006     18.264641     74.880615      2.423142      0.000355   -999.250000
    3818.1006     18.083267     75.258911      2.424718      0.000146   -999.250000
    3818.0006     17.921581     75.659485      2.422855      0.000097   -999.250000
    3817.9006     17.760181     75.972153      2.417833      0.000061   -999.250000
    3817.8006     17.597004     76.128418      2.411712     -0.000322   -999.250000
    3817.7006     17.437275     76.108154      2.406279     -0.001567   -999.250000
    3817.6006     17.275826     75.878830      2.403512     -0.001928   -999.250000
    3817.5006     17.110714     75.399811      2.403840     -0.001038   -999.250000
    3817.4006     16.924915     74.712662      2.407013     -0.000241   -999.250000
    3817.3006     16.651123     73.985718      2.412620      0.000061   -999.250000
    3817.2006     16.285549     73.399719      2.418988      0.000410   -999.250000
    3817.1006     15.845600     72.990463      2.424315      0.001587   -999.250000
    3817.0006     15.601387     72.728638      2.427177      0.001347   -999.250000
    3816.9006     15.561764     72.619827      2.427854     -0.000546   -999.250000
    3816.8006     15.372231     72.679092      2.427187     -0.001125   -999.250000
    3816.7006     15.437077     72.885437      2.426962     -0.000548   -999.250000
    3816.6006     15.816877     73.169846      2.427558     -0.000099   -999.250000
    3816.5006     15.494600     73.459900      2.427369     -0.000014   -999.250000
    3816.4006     14.621349     73.719772      2.424679     -0.000077   -999.250000
    3816.3006     13.765654     73.957565      2.419168     -0.000167   -999.250000
    3816.2006     13.224672     74.169891      2.410467     -0.000227   -999.250000
    3816.1006     13.051294     74.319672      2.401035     -0.000256   -999.250000
    3816.0006     13.170927     74.372742      2.392415     -0.000271   -999.250000
    3815.9006     13.611008     74.283463      2.386165     -0.000279   -999.250000
    3815.8006     14.223581     73.986420      2.383042     -0.000276   -999.250000
    3815.7006     14.945927     73.410095      2.382584     -0.000257   -999.250000
    3815.6006     16.681141     72.563049      2.385611     -0.000185   -999.250000
    3815.5006     19.413345     71.553970      2.392621     -0.000078   -999.250000
    3815.4006     22.436947     70.554871      2.403360      0.000020   -999.250000
    3815.3006     24.802589     69.741425      2.417315      0.000085   -999.250000
    3815.2006     26.366158     69.195450      2.433316      0.000107   -999.250000
    3815.1006     27.269306     69.041199      2.449366      0.000071   -999.250000
    3815.0006     26.948677     69.330872      2.462108      0.000060   -999.250000
    3814.9006     26.001045     69.928543      2.470792      0.000427   -999.250000
    3814.8006     25.860355     70.534317      2.475493      0.001588   -999.250000
