# LAS format data
~Version Information
VERS.     2.00: CWLS LOG ASCII STANDARD - VERSION 2.0
WRAP.       NO: ONE LINE PER DEPTH STEP
~Well Information
#MNEM   .UNITS    DATA                           DESCRIPTION
#----   ------    ----                           -----------
STRT    .M        3881.9004                     :First Index Value
STOP    .M        50.2002                       :Last Index Value
STEP    .M        -0.1000                       :Frame Spacing
NULL    .         -999.2500                     :Absent Value
WELL    .         L07-05                        :Well Name   
FLD     .         UNKNOWN                       :Field Name  
CNTY    .                                       :County
STAT    .                                       :State
CTRY    .                                       :Country
LOC     .                                       :Location
API     .                                       :API Number
DATE    .                                       :Date
COMP    .         PETROLAND                     :Company Name
SRVC    .                                       :Service Company
~Parameter Information
#MNEM   .UNITS    VALUE                          DESCRIPTION
#----   ------    -----                          -----------
TDL     .M          3883.000                    :Total Depth (Logger)
TDD     .M          3886.000                    :Total Depth (Driller)   
UBID    .         7266                          :Unique Borehole Id  
PDAT    .         Mean Sea Level                :Permanent Datum 
EPD     .M           0.00000                    :Elevation of Permanent Datum (PDAT) above Mean Sea Level
LMF     .         Rotary Table                  :Logging Measured From (Name of Logging Elevation Reference) 
APD     .M          31.40000                    :Elevation of Depth Reference (LMF) Above Permanent Datum
EGL     .M         -30.60000                    :Elevation of Ground Level Above Mean Sea Level  
~Curve Information
#MNEM   .UNITS    API CODE                       CURVE DESCRIPTION
#----   ------    --------                       -----------------
DEPT    .M                                      :1     Index curve
GR      .GAPI                                   :2     L07-05
DT      .US/F                                   :3     L07-05
RHOB    .G/C3                                   :4     L07-05
DRHO    .G/C3                                   :5     L07-05
NPHI    .V/V                                    :6     L07-05
~Ascii Log Data
# ...
    3699.5002     79.245224     68.813095      2.605042      0.000280      0.126098
    3699.4002     78.018066     68.781921      2.613454      0.000171      0.125938
    3699.3002     74.040848     68.911179      2.618408      0.000040      0.127228
    3699.2002     69.692139     69.177628      2.619740     -0.000021      0.130626
    3699.1002     67.287445     69.236694      2.619046      0.000011      0.134819
    3699.0002     66.370819     68.836731      2.618296      0.000063      0.137506
    3698.9002     66.542313     68.086807      2.618544      0.000085      0.136899
    3698.8002     67.523499     67.339096      2.619724      0.000090      0.133237
    3698.7002     68.203888     66.782852      2.621504      0.000103      0.127754
    3698.6002     68.507019     66.437027      2.623291      0.000128      0.122745
    3698.5002     69.290817     66.305252      2.624676      0.000152      0.119991
    3698.4002     71.130264     66.379684      2.625675      0.000154      0.119762
    3698.3002     72.972443     66.569366      2.626508      0.000136      0.121310
    3698.2002     73.453796     66.787338      2.627500      0.000119      0.123612
    3698.1002     72.548370     66.984772      2.629138      0.000113      0.125703
    3698.0002     72.082062     67.076157      2.631629      0.000125      0.126568
    3697.9002     73.820541     67.025757      2.634743      0.000167      0.126038
    3697.8002     77.551254     66.904785      2.638010      0.000231      0.125152
    3697.7002     81.853806     66.805084      2.640841      0.000267      0.125046
    3697.6002     85.678101     66.771225      2.642100      0.000229      0.126040
    3697.5002     88.341400     66.923950      2.638347      0.000168      0.127993
    3697.4002     89.830734     67.561661      2.625312     -0.000001      0.130960
    3697.3002     90.748627     68.793228      2.600493     -0.001754      0.134993
    3697.2002     91.724182     70.274948      2.562843     -0.009564      0.140027
    3697.1002     92.800079     71.624832      2.514697     -0.023828      0.146683
    3697.0002     94.035568     72.743195      2.463564     -0.034955      0.155932
    3696.9002     97.135040     73.639648      2.420943     -0.032351      0.167136
    3696.8002    103.036285     74.197708      2.395508     -0.018024      0.177865
    3696.7002    108.843857     74.410156      2.390638     -0.004974      0.185008
    3696.6002    112.227585     74.597168      2.406677     -0.000997      0.186465
    3696.5002    113.530533     74.911377      2.439852     -0.001552      0.183690
    3696.4002    111.564255     75.069473      2.480586     -0.001669      0.181726
    3696.3002    105.075592     74.748505      2.520083     -0.000856      0.184064
    3696.2002     94.857376     73.836670      2.553370     -0.000130      0.188850
    3696.1002     82.592361     72.408035      2.577188      0.000094      0.190889
    3696.0002     71.580200     70.729019      2.591697      0.000162      0.185982
    3695.9002     67.509720     69.361908      2.598361      0.000100      0.173766
    3695.8002     73.673935     68.804733      2.599319     -0.000056      0.157932
    3695.7002     87.678864     68.931366      2.595985     -0.000209      0.143616
    3695.6002    103.023254     69.469009      2.589769     -0.000443      0.136387
    3695.5002    114.573227     70.569260      2.582549     -0.000888      0.140529
    3695.4002    121.121735     72.381821      2.575959     -0.000751      0.155867
    3695.3002    122.122131     74.418259      2.571445      0.003103      0.175785
    3695.2002    118.432083     75.850327      2.569241      0.014970      0.191798
    3695.1002    111.478928     76.109558      2.568581      0.033015      0.197391
    3695.0002    103.036591     75.143127      2.568084      0.046332      0.190266
    3694.9002     94.091858     73.302002      2.566562      0.047570      0.174738
    3694.8002     85.199707     71.282227      2.563858      0.037749      0.158304
    3694.7002     76.859406     69.697983      2.560633      0.020645      0.145055
    3694.6002     69.361008     68.827881      2.557749      0.005676      0.136197
    3694.5002     62.485023     68.704712      2.555316      0.000817      0.131355
    3694.4002     55.321754     69.293427      2.551924      0.001156      0.129193
    3694.3002     47.679207     70.497986      2.544667      0.000640      0.128801
    3694.2002     40.708138     72.033997      2.531199      0.000219      0.130204
    3694.1002     35.742416     73.584808      2.511525      0.000136      0.133477
    3694.0002     33.489594     74.997223      2.487617      0.000041      0.138356
    3693.9002     33.902458     76.211487      2.462588     -0.000062      0.144680
    3693.8002     36.169434     77.113083      2.440548     -0.000122      0.151989
    3693.7002     38.628685     77.562515      2.425595     -0.000063      0.158777
    3693.6002     39.499664     77.555115      2.419477      0.000362      0.163350
    3693.5002     38.463799     77.259262      2.421047      0.001367      0.165024
    3693.4002     36.572639     76.927673      2.428598      0.002043      0.163914
    3693.3002     35.139961     76.784760      2.439943      0.001563      0.161256
    3693.2002     34.815178     76.852158      2.452457      0.001130      0.159327
    3693.1002     35.198555     76.955078      2.463877      0.001154      0.158968
    3693.0002     35.553619     77.010559      2.472648      0.000720      0.159265
    3692.9002     35.984360     77.076035      2.477673      0.000143      0.159573
    3692.8002     37.715714     77.131897      2.478848     -0.000025      0.159858
    3692.7002     41.746490     77.049988      2.477834      0.000030      0.160313
    3692.6002     48.126831     76.874420      2.477192      0.000040      0.161175
    3692.5002     55.479897     76.920151      2.479315     -0.000367      0.163443
    3692.4002     61.618439     77.325989      2.484418     -0.001221      0.167157
    3692.3002     64.839493     77.800278      2.490358     -0.001331      0.170661
    3692.2002     65.155472     77.832108      2.494048     -0.000629      0.171716
    3692.1002     63.478836     77.312836      2.494054     -0.000046      0.169711
    3692.0002     57.299881     76.633652      2.489656      0.001095      0.165668
    3691.9002     47.909996     76.306076      2.482801      0.002061      0.161698
    3691.8002     39.622009     76.460220      2.476473      0.001410      0.159487
    3691.7002     34.932297     76.735321      2.474226      0.000436      0.159183
    3691.6002     33.173309     76.541138      2.478370      0.000106      0.160315
    3691.5002     32.469505     75.724655      2.488435      0.000067      0.161955
    3691.4002     34.371780     74.664062      2.504629      0.000113      0.163119
    3691.3002     39.126060     74.000244      2.523963      0.004406      0.163196
    3691.2002     45.763130     73.875275      2.544522      0.017909      0.162751
    3691.1002     57.863686     74.012222      2.563914      0.038249      0.163725
    3691.0002     73.064224     74.097717      2.580930      0.057116      0.167403
    3690.9002     86.904587     74.082062      2.596692      0.069086      0.173735
    3690.8002     94.926453     74.002777      2.610976      0.072964      0.182125
    3690.7002     97.271225     73.733017      2.623064      0.074475      0.191338
    3690.6002     95.674820     73.180237      2.632815      0.080543      0.200325
    3690.5002     91.481308     72.541336      2.638266      0.082162      0.206125
    3690.4002     85.705978     72.280685      2.638849      0.075381      0.207122
    3690.3002     79.028214     72.543610      2.633537      0.063859      0.203809
    3690.2002     73.651550     73.002396      2.620503      0.044280      0.197742
    3690.1002     70.833206     73.229889      2.600392      0.019774      0.190633
    3690.0002     71.996567     73.118561      2.574669      0.005170      0.184097
