# LAS format data
~Version Information
VERS.     2.00: CWLS LOG ASCII STANDARD - VERSION 2.0
WRAP.       NO: ONE LINE PER DEPTH STEP
~Well Information
#MNEM   .UNITS    DATA                           DESCRIPTION
#----   ------    ----                           -----------
STRT    .M        3881.9004                     :First Index Value
STOP    .M        50.2002                       :Last Index Value
STEP    .M        -0.1000                       :Frame Spacing
NULL    .         -999.2500                     :Absent Value
WELL    .         L07-05                        :Well Name   
FLD     .         UNKNOWN                       :Field Name  
CNTY    .                                       :County
STAT    .                                       :State
CTRY    .                                       :Country
LOC     .                                       :Location
API     .                                       :API Number
DATE    .                                       :Date
COMP    .         PETROLAND                     :Company Name
SRVC    .                                       :Service Company
~Parameter Information
#MNEM   .UNITS    VALUE                          DESCRIPTION
#----   ------    -----                          -----------
TDL     .M          3883.000                    :Total Depth (Logger)
TDD     .M          3886.000                    :Total Depth (Driller)   
UBID    .         7266                          :Unique Borehole Id  
PDAT    .         Mean Sea Level                :Permanent Datum 
EPD     .M           0.00000                    :Elevation of Permanent Datum (PDAT) above Mean Sea Level
LMF     .         Rotary Table                  :Logging Measured From (Name of Logging Elevation Reference) 
APD     .M          31.40000                    :Elevation of Depth Reference (LMF) Above Permanent Datum
EGL     .M         -30.60000                    :Elevation of Ground Level Above Mean Sea Level  
~Curve Information
#MNEM   .UNITS    API CODE                       CURVE DESCRIPTION
#----   ------    --------                       -----------------
DEPT    .M                                      :1     Index curve
GR      .GAPI                                   :2     L07-05
DT      .US/F                                   :3     L07-05
RHOB    .G/C3                                   :4     L07-05
DRHO    .G/C3                                   :5     L07-05
NPHI    .V/V                                    :6     L07-05
~Ascii Log Data
# ...
    3766.7003     65.982254     74.567490      2.474737      0.000053      0.134075
    3766.6003     70.778809     73.981033      2.495202     -0.000348      0.131374
    3766.5003     74.901138     72.792847      2.520122     -0.001560      0.130372
    3766.4003     78.329895     71.314636      2.546311     -0.002270      0.131329
    3766.3003     81.384415     69.793564      2.571668     -0.001602      0.133380
    3766.2003     85.903595     68.494232      2.594481     -0.001526      0.135331
    3766.1003     90.999786     67.773819      2.612021     -0.001247      0.135948
    3766.0003     94.154999     67.797226      2.624701      0.000722      0.134958
    3765.9003     92.807358     68.350769      2.633126      0.001576      0.133275
    3765.8003     88.897797     68.955017      2.638614      0.000869      0.132210
    3765.7003     85.920517     69.160965      2.643078      0.000350      0.132309
    3765.6003     85.146927     68.909241      2.647293      0.000237      0.133151
    3765.5003     86.313705     68.533783      2.651730      0.000212      0.133865
    3765.4003     88.431076     68.373566      2.656299      0.001449      0.133859
    3765.3003     89.057312     68.463593      2.659513      0.011363      0.133120
    3765.2003     85.006790     68.638641      2.659439      0.018961      0.131957
    3765.1003     75.311172     68.951721      2.655210      0.011930      0.130668
    3765.0003     62.196541     69.549072      2.644945      0.004132      0.129369
    3764.9003     49.768394     70.384140      2.628222      0.001714      0.127772
    3764.8003     41.183121     71.129059      2.607327      0.000824      0.125733
    3764.7003     36.393517     71.563263      2.585032      0.000214      0.123141
    3764.6003     35.025261     71.702499      2.564726     -0.000022      0.120364
    3764.5003     36.788376     71.629105      2.548503     -0.000083      0.118766
    3764.4003     43.972595     71.374344      2.538412     -0.000031      0.120670
    3764.3003     53.535217     70.997116      2.533834      0.000365      0.124399
    3764.2003     60.696388     70.674057      2.533077      0.001314      0.126392
    3764.1003     61.331627     70.513855      2.536203      0.001427      0.124815
    3764.0003     55.876488     70.414810      2.541961      0.000745      0.120363
    3763.9003     46.189636     70.277573      2.549047      0.000276      0.114764
    3763.8003     38.271095     70.087082      2.555400      0.000182      0.109573
    3763.7003     33.913200     69.826416      2.559050      0.000196      0.105956
    3763.6003     30.860699     69.447525      2.558578      0.000176      0.103983
    3763.5003     28.850281     68.995544      2.551277      0.000067      0.103569
    3763.4003     28.008801     68.694412      2.538542      0.000125      0.104264
    3763.3003     27.944256     68.683868      2.522277      0.000865      0.105438
    3763.2003     27.789047     68.907196      2.507100      0.001213      0.106141
    3763.1003     27.072540     69.146820      2.495964      0.000728      0.105926
    3763.0003     25.640690     69.235947      2.491133      0.000194      0.104969
    3762.9003     24.198032     69.187485      2.492284     -0.000018      0.103856
    3762.8003     23.248661     69.160492      2.496396     -0.000059      0.103005
    3762.7003     22.998596     69.250977      2.499673     -0.000012      0.102573
    3762.6003     23.683712     69.401367      2.500812      0.000035      0.102546
    3762.5003     24.937069     69.493271      2.500651      0.000021      0.102753
    3762.4003     24.995251     69.489624      2.499839     -0.000040      0.103006
    3762.3003     24.621815     69.462479      2.499294     -0.000071      0.103357
    3762.2003     25.631046     69.472473      2.499415     -0.000034      0.103977
    3762.1003     28.970928     69.512070      2.499279      0.000032      0.104903
    3762.0003     36.628586     69.565369      2.499372      0.000084      0.106331
    3761.9003     49.692795     69.696106      2.501285      0.000115      0.108603
    3761.8003     66.774261     70.025940      2.507902      0.000131      0.112185
    3761.7003     82.234772     70.646332      2.521260      0.000140      0.119043
    3761.6003     89.794937     71.497864      2.540912      0.000144      0.129998
    3761.5003     87.027695     72.338730      2.564347      0.000137      0.142032
    3761.4003     77.398727     72.928329      2.587817      0.000112      0.151382
    3761.3003     66.458282     73.112854      2.606054      0.000064      0.154887
    3761.2003     56.174774     72.876297      2.613638      0.000006      0.150909
    3761.1003     46.611198     72.245926      2.608173     -0.000042      0.140707
    3761.0003     38.573654     71.360367      2.592792     -0.000068      0.128765
    3760.9003     33.229492     70.448044      2.571710     -0.000058      0.118392
    3760.8003     31.540333     69.772186      2.549908     -0.000010      0.110897
    3760.7003     33.280281     69.515213      2.532601      0.000046      0.106509
    3760.6003     37.106651     69.675934      2.522208      0.000047      0.104736
    3760.5003     41.020508     70.105179      2.518480     -0.000032      0.105117
    3760.4003     43.455513     70.561279      2.518906     -0.000134      0.107081
    3760.3003     44.566574     70.856781      2.520705     -0.000191      0.110001
    3760.2003     45.151085     70.935349      2.522163     -0.000185      0.113493
    3760.1003     45.551689     70.860367      2.522911     -0.000134      0.117258
    3760.0003     47.004128     70.779755      2.523205     -0.000036      0.121158
    3759.9003     50.950256     70.879883      2.523492      0.000112      0.125019
    3759.8003     55.925415     71.215042      2.525463      0.000252      0.128677
    3759.7003     59.202171     71.590515      2.531131      0.000321      0.131854
    3759.6003     59.574287     71.732956      2.540889      0.000296      0.134130
    3759.5005     57.408600     71.593521      2.553231      0.000194      0.135594
    3759.4005     53.486061     71.332962      2.565109      0.000064      0.136786
    3759.3005     48.587372     71.145126      2.571969     -0.000014      0.138283
    3759.2005     43.198814     71.164841      2.570094     -0.000003      0.140439
    3759.1005     37.684868     71.538834      2.558284      0.000101      0.143145
    3759.0005     32.542046     72.343170      2.539150      0.000388      0.146084
    3758.9005     28.967381     73.452469      2.517311      0.000964      0.148841
    3758.8005     28.515388     74.554657      2.497130      0.001449      0.150868
    3758.7005     31.489632     75.398209      2.480786      0.001169      0.151836
    3758.6005     37.024170     75.842407      2.469148      0.000414      0.151712
    3758.5005     43.582909     75.807983      2.462703      0.000110      0.150768
    3758.4005     49.892258     75.268768      2.461192      0.000217      0.149489
    3758.3005     56.331383     74.312515      2.465555      0.000333      0.148437
    3758.2005     64.481995     73.103500      2.477317      0.000408      0.147622
    3758.1005     74.147018     71.833405      2.494989      0.000418      0.146431
    3758.0005     84.247238     70.652969      2.515016      0.000363      0.144333
    3757.9005     94.743973     69.568268      2.534733      0.000258      0.141236
    3757.8005    105.461472     68.597168      2.551758      0.000137      0.137556
    3757.7005    115.635895     67.879364      2.565386      0.000045      0.134285
    3757.6005    124.328156     67.602646      2.577038      0.000015      0.132389
    3757.5005    130.569122     67.852875      2.588614      0.000044      0.132366
    3757.4005    133.241821     68.535019      2.601928      0.000105      0.134700
    3757.3005    131.592529     69.414673      2.617967      0.000166      0.140023
    3757.2005    125.843140     70.266220      2.635488      0.000210      0.147913
