# LAS format data
~Version Information
VERS.     2.00: CWLS LOG ASCII STANDARD - VERSION 2.0
WRAP.       NO: ONE LINE PER DEPTH STEP
~Well Information
#MNEM   .UNITS    DATA                           DESCRIPTION
#----   ------    ----                           -----------
STRT    .M        3881.9004                     :First Index Value
STOP    .M        50.2002                       :Last Index Value
STEP    .M        -0.1000                       :Frame Spacing
NULL    .         -999.2500                     :Absent Value
WELL    .         L07-05                        :Well Name   
FLD     .         UNKNOWN                       :Field Name  
CNTY    .                                       :County
STAT    .                                       :State
CTRY    .                                       :Country
LOC     .                                       :Location
API     .                                       :API Number
DATE    .                                       :Date
COMP    .         PETROLAND                     :Company Name
SRVC    .                                       :Service Company
~Parameter Information
#MNEM   .UNITS    VALUE                          DESCRIPTION
#----   ------    -----                          -----------
TDL     .M          3883.000                    :Total Depth (Logger)
TDD     .M          3886.000                    :Total Depth (Driller)   
UBID    .         7266                          :Unique Borehole Id  
PDAT    .         Mean Sea Level                :Permanent Datum 
EPD     .M           0.00000                    :Elevation of Permanent Datum (PDAT) above Mean Sea Level
LMF     .         Rotary Table                  :Logging Measured From (Name of Logging Elevation Reference) 
APD     .M          31.40000                    :Elevation of Depth Reference (LMF) Above Permanent Datum
EGL     .M         -30.60000                    :Elevation of Ground Level Above Mean Sea Level  
~Curve Information
#MNEM   .UNITS    API CODE                       CURVE DESCRIPTION
#----   ------    --------                       -----------------
DEPT    .M                                      :1     Index curve
GR      .GAPI                                   :2     L07-05
DT      .US/F                                   :3     L07-05
RHOB    .G/C3                                   :4     L07-05
DRHO    .G/C3                                   :5     L07-05
NPHI    .V/V                                    :6     L07-05
~Ascii Log Data
# ...
    3718.7002     94.450150     65.870209      2.630455     -0.002547      0.120080
    3718.6002     96.066620     65.644958      2.632371     -0.001261      0.117895
    3718.5002     98.115433     65.511719      2.636761     -0.000163      0.115996
    3718.4002     99.343262     65.556610      2.641903      0.000247      0.114900
    3718.3002    100.546463     65.821915      2.646096      0.000542      0.115269
    3718.2002    102.623718     66.297607      2.648611      0.001322      0.117355
    3718.1002    105.045197     66.925369      2.649234      0.001984      0.120959
    3718.0002    106.495056     67.574127      2.648249      0.001521      0.125343
    3717.9002    106.918060     68.108719      2.646654      0.000538      0.129562
    3717.8002    107.561600     68.445724      2.645676      0.000105      0.132855
    3717.7002    109.575256     68.605972      2.646163      0.000070      0.135042
    3717.6002    113.045547     68.686859      2.648035      0.000043      0.136653
    3717.5002    116.954620     68.817093      2.650577      0.000001      0.138736
    3717.4002    120.279068     69.152145      2.653055     -0.000034      0.142207
    3717.3002    122.345718     69.779465      2.654651     -0.000026      0.146843
    3717.2002    122.482422     70.559418      2.654900      0.000039      0.151296
    3717.1002    119.558472     71.165878      2.654213      0.000118      0.154211
    3717.0002    112.866486     71.304016      2.653454      0.000165      0.154779
    3716.9002    103.898483     70.867950      2.653239      0.000175      0.152749
    3716.8002     95.908279     69.936417      2.653823      0.000157      0.148466
    3716.7002     90.170547     68.660248      2.655252      0.000126      0.142819
    3716.6002     85.831009     67.282913      2.657212      0.000098      0.136986
    3716.5002     83.007751     66.110107      2.658743      0.000091      0.132017
    3716.4002     82.571259     65.496170      2.659274      0.000121      0.129181
    3716.3002     85.870316     65.726517      2.659046      0.000176      0.130028
    3716.2002     94.418350     66.857498      2.658172      0.000189      0.135817
    3716.1002    105.361282     68.584198      2.656560      0.000048      0.146147
    3716.0002    112.968719     70.544968      2.653818     -0.000456      0.159059
    3715.9002    115.972168     72.481110      2.649227     -0.001320      0.171853
    3715.8002    115.579651     73.989639      2.642678     -0.001540      0.181550
    3715.7002    111.610519     74.565018      2.635349     -0.000345      0.186346
    3715.6002    105.007751     73.986786      2.629410      0.000748      0.185497
    3715.5002     98.281937     72.680939      2.626635      0.000521      0.179819
    3715.4002     94.011032     71.142380      2.627542      0.000055      0.170890
    3715.3002     92.247650     69.568222      2.630887     -0.000051      0.160962
    3715.2002     90.503204     68.044983      2.634868     -0.000083      0.151615
    3715.1002     87.273346     66.859604      2.638229     -0.000083      0.143789
    3715.0002     83.716873     66.240128      2.640693     -0.000030      0.137970
    3714.9002     81.776001     66.016739      2.643042      0.000040      0.134061
    3714.8002     81.800766     65.903473      2.645920      0.000067      0.131699
    3714.7002     83.202789     65.796875      2.649172      0.000056      0.130043
    3714.6002     84.769897     65.743332      2.652423      0.000061      0.128569
    3714.5002     85.490280     65.763855      2.655540      0.000105      0.127312
    3714.4002     86.666595     65.818039      2.657994      0.000073      0.126423
    3714.3002     89.012360     65.900330      2.659625     -0.000473      0.126076
    3714.2002     90.949966     66.054550      2.660948     -0.001659      0.126312
    3714.1002     91.892715     66.283066      2.661364     -0.002018      0.126947
    3714.0002     91.647415     66.483810      2.660568     -0.001034      0.127670
    3713.9002     89.465912     66.568344      2.659563     -0.000169      0.128234
    3713.8002     86.661133     66.535004      2.659586      0.000064      0.128544
    3713.7002     85.492523     66.418243      2.661009      0.000099      0.128574
    3713.6002     86.847839     66.263321      2.663419      0.000115      0.128283
    3713.5002     89.614120     66.152023      2.665285      0.000097      0.127637
    3713.4002     92.133133     66.186111      2.665384      0.000057      0.127148
    3713.3002     93.785965     66.366959      2.663533      0.000047      0.127510
    3713.2002     93.613297     66.603470      2.660451      0.000085      0.128821
    3713.1002     91.532883     66.870346      2.657414      0.000147      0.130759
    3713.0002     88.327393     67.157684      2.655439      0.000206      0.132942
    3712.9002     85.528061     67.373383      2.655071      0.000254      0.134974
    3712.8002     83.520493     67.354263      2.655661      0.000268      0.136252
    3712.7002     81.586502     67.059219      2.656102      0.000195      0.136239
    3712.6002     81.063492     66.612991      2.656038      0.000754      0.134727
    3712.5002     82.105087     66.162079      2.655644      0.001695      0.132167
    3712.4002     83.032440     65.841431      2.655063      0.001454      0.129446
    3712.3002     82.985306     65.721939      2.654233      0.000653      0.127547
    3712.2002     81.676178     65.769089      2.652996      0.000254      0.127104
    3712.1002     78.210999     65.970627      2.651055      0.000161      0.128042
    3712.0002     74.490143     66.351822      2.647866      0.000511      0.129725
    3711.9002     71.932602     66.772903      2.643678      0.001169      0.131262
    3711.8002     69.470978     66.954254      2.639678      0.001086      0.132017
    3711.7002     67.198044     66.708893      2.636894      0.000557      0.131338
    3711.6002     65.815857     66.152069      2.635754      0.000308      0.128889
    3711.5002     65.631989     65.534195      2.636856      0.000836      0.124939
    3711.4002     65.437180     65.056122      2.640050      0.001279      0.120131
    3711.3002     64.597382     64.921921      2.644274      0.000985      0.115957
    3711.2002     64.811508     65.211685      2.647300      0.000491      0.113588
    3711.1002     66.818039     65.827927      2.647429      0.000219      0.113886
    3711.0002     69.905685     66.531616      2.644672      0.000166      0.116404
    3710.9002     72.361694     67.176804      2.639012      0.000183      0.120364
    3710.8002     73.871094     67.675751      2.632359      0.000174      0.124032
    3710.7002     75.008591     67.943268      2.626631      0.000120      0.126134
    3710.6002     75.847443     67.938095      2.623396      0.000064      0.126694
    3710.5002     76.149506     67.725647      2.622194     -0.000399      0.126554
    3710.4002     75.809433     67.434540      2.621844     -0.001690      0.126538
    3710.3002     74.403442     67.177307      2.621527     -0.001936      0.127026
    3710.2002     73.024719     67.000397      2.621639     -0.000737      0.127390
    3710.1002     73.148071     66.905685      2.622983      0.000902      0.126899
    3710.0002     75.325638     66.897552      2.625112      0.001388      0.125252
    3709.9002     77.243988     66.969101      2.627102      0.000794      0.123227
    3709.8002     75.842133     67.088715      2.628600      0.000279      0.121731
    3709.7002     71.729355     67.181732      2.629092      0.000138      0.121271
    3709.6002     67.401581     67.119492      2.628658      0.000312      0.121639
    3709.5002     63.638519     66.804092      2.627813      0.001076      0.122151
    3709.4002     60.616570     66.243225      2.628315      0.000967      0.121637
    3709.3002     58.592514     65.523926      2.631094     -0.000362      0.119726
    3709.2002     58.646942     64.806458      2.635837     -0.000848      0.117166
