# LAS format data
~Version Information
VERS.     2.00: CWLS LOG ASCII STANDARD - VERSION 2.0
WRAP.       NO: ONE LINE PER DEPTH STEP
~Well Information
#MNEM   .UNITS    DATA                           DESCRIPTION
#----   ------    ----                           -----------
STRT    .M        3881.9004                     :First Index Value
STOP    .M        50.2002                       :Last Index Value
STEP    .M        -0.1000                       :Frame Spacing
NULL    .         -999.2500                     :Absent Value
WELL    .         L07-05                        :Well Name   
FLD     .         UNKNOWN                       :Field Name  
CNTY    .                                       :County
STAT    .                                       :State
CTRY    .                                       :Country
LOC     .                                       :Location
API     .                                       :API Number
DATE    .                                       :Date
COMP    .         PETROLAND                     :Company Name
SRVC    .                                       :Service Company
~Parameter Information
#MNEM   .UNITS    VALUE                          DESCRIPTION
#----   ------    -----                          -----------
TDL     .M          3883.000                    :Total Depth (Logger)
TDD     .M          3886.000                    :Total Depth (Driller)   
UBID    .         7266                          :Unique Borehole Id  
PDAT    .         Mean Sea Level                :Permanent Datum 
EPD     .M           0.00000                    :Elevation of Permanent Datum (PDAT) above Mean Sea Level
LMF     .         Rotary Table                  :Logging Measured From (Name of Logging Elevation Reference) 
APD     .M          31.40000                    :Elevation of Depth Reference (LMF) Above Permanent Datum
EGL     .M         -30.60000                    :Elevation of Ground Level Above Mean Sea Level  
~Curve Information
#MNEM   .UNITS    API CODE                       CURVE DESCRIPTION
#----   ------    --------                       -----------------
DEPT    .M                                      :1     Index curve
GR      .GAPI                                   :2     L07-05
DT      .US/F                                   :3     L07-05
RHOB    .G/C3                                   :4     L07-05
DRHO    .G/C3                                   :5     L07-05
NPHI    .V/V                                    :6     L07-05
~Ascii Log Data
# ...
    3661.1004     62.270409     71.105911      2.564690      0.000102      0.120509
    3661.0004     69.489502     70.056839      2.575057      0.000214      0.119752
    3660.9004     77.810104     69.027466      2.587054      0.000793      0.121153
    3660.8004     85.875000     68.126709      2.600336      0.001265      0.124499
    3660.7004     91.608185     67.430054      2.614038      0.000920      0.129126
    3660.6004     95.317886     66.971542      2.627886      0.000448      0.134320
    3660.5004     97.487808     66.806076      2.641205      0.005871      0.138850
    3660.4004     98.797745     66.905594      2.653973      0.019701      0.141975
    3660.3004    104.152435     67.130539      2.665009      0.020817      0.143636
    3660.2004    113.636185     67.294418      2.673159      0.009596      0.144566
    3660.1004    124.039093     67.323593      2.678957      0.002114      0.146078
    3660.0004    133.348633     67.283173      2.682596      0.000274      0.149413
    3659.9004    139.350372     67.379852      2.684512      0.000071      0.155947
    3659.8004    141.036011     67.959900      2.685408      0.000040      0.165910
    3659.7004    136.422638     69.221069      2.685543      0.000954      0.177539
    3659.6004    129.043243     70.968903      2.685085      0.001936      0.187499
    3659.5004    123.744919     72.594833      2.684139      0.001410      0.193588
    3659.4004    124.021683     73.546539      2.682845      0.000511      0.195193
    3659.3004    127.883911     73.715103      2.681245      0.000065      0.193582
    3659.2004    131.649384     73.297150      2.679330     -0.000084      0.191058
    3659.1004    133.139221     72.586975      2.678194     -0.000086      0.190404
    3659.0004    133.272186     71.836868      2.678443     -0.000018      0.192475
    3658.9004    133.767853     71.355743      2.680402      0.000058      0.196439
    3658.8004    133.806519     71.478821      2.684077      0.000098      0.201125
    3658.7004    131.965057     72.324554      2.688727      0.000105      0.205917
    3658.6004    127.018967     73.647476      2.693110      0.000091      0.209986
    3658.5004    119.376999     75.030731      2.696067      0.000065      0.211716
    3658.4004    111.805130     76.050583      2.697498      0.000041      0.209493
    3658.3004    108.618164     76.389465      2.697887      0.000043      0.203431
    3658.2004    108.120865     75.905899      2.697880      0.000060      0.193438
    3658.1004    108.129990     74.689331      2.697825      0.000075      0.180364
    3658.0004    109.277176     73.085114      2.697821      0.000086      0.166439
    3657.9004    112.320297     71.417038      2.696622      0.000098      0.157359
    3657.8004    116.235397     69.992783      2.693150      0.000104      0.156408
    3657.7004    118.239090     69.062683      2.685034      0.000074      0.161564
    3657.6004    116.987885     68.958038      2.671799      0.000451      0.171672
    3657.5004    113.828583     69.682693      2.655719      0.001285      0.185226
    3657.4004    112.083801     70.978836      2.638391      0.001315      0.200969
    3657.3004    110.954926     72.391647      2.623440      0.000703      0.212354
    3657.2004    108.242462     73.283539      2.613389      0.001750      0.214564
    3657.1004    105.045898     73.332321      2.608115      0.016462      0.209139
    3657.0004    102.540085     72.801117      2.606949      0.030139      0.200083
    3656.9004    100.538757     72.209000      2.608730      0.021486      0.190924
    3656.8004     99.490723     71.730377      2.611650      0.006777      0.183708
    3656.7004     98.929550     71.075287      2.613089      0.001337      0.177750
    3656.6004     97.871872     70.346802      2.611387      0.000463      0.172546
    3656.5004     96.889267     69.990265      2.602383      0.000212      0.170090
    3656.4004     95.808212     70.029984      2.587118      0.000030      0.170544
    3656.3004     93.477783     70.250549      2.570445     -0.000056      0.171356
    3656.2004     91.192184     70.556885      2.558721      0.000525      0.170096
    3656.1004     90.100876     70.780518      2.556460      0.001355      0.165443
    3656.0004     89.126129     70.529953      2.563193      0.001206      0.157769
    3655.9004     88.029892     69.572800      2.575369      0.000415      0.149338
    3655.8004     87.455978     68.275162      2.588645     -0.000014      0.142332
    3655.7004     87.508392     67.119247      2.601014     -0.000087      0.137282
    3655.6004     87.515671     66.270798      2.611493     -0.000097      0.134092
    3655.5004     87.038193     65.681107      2.620650     -0.000086      0.132342
    3655.4004     86.658951     65.362350      2.629483     -0.000028      0.131593
    3655.3004     87.336380     65.323639      2.636981      0.000052      0.131562
    3655.2004     89.549072     65.479584      2.641988      0.000079      0.132099
    3655.1004     93.175476     65.728195      2.644854      0.000028      0.133084
    3655.0004     97.229202     66.006729      2.646681     -0.000038      0.134476
    3654.9004    100.369064     66.317856      2.648596     -0.000038      0.136363
    3654.8004    101.693848     66.707840      2.651280      0.000027      0.138704
    3654.7004    100.413834     67.207474      2.654179      0.000102      0.141473
    3654.6004     95.856689     67.759262      2.655708      0.000161      0.144391
    3654.5004     89.471954     68.282944      2.654726      0.000194      0.146635
    3654.4004     84.129776     68.774231      2.651350      0.000207      0.147278
    3654.3004     81.682800     69.193604      2.646715      0.000202      0.145708
    3654.2004     81.188431     69.424088      2.642421      0.000184      0.142044
    3654.1004     80.852661     69.379318      2.639404      0.000195      0.137138
    3654.0004     80.560394     69.076126      2.637453      0.000417      0.132297
    3653.9004     80.320694     68.611115      2.635358      0.001012      0.128466
    3653.8004     79.738190     68.112579      2.632247      0.001361      0.126057
    3653.7004     79.075470     67.700333      2.628454      0.000452      0.125023
    3653.6004     78.797897     67.447601      2.625291     -0.000828      0.125068
    3653.5004     79.155167     67.397110      2.624252     -0.000827      0.126031
    3653.4004     80.161697     67.556000      2.626534     -0.000185      0.127841
    3653.3004     81.119751     67.859589      2.632253      0.000042      0.130234
    3653.2004     81.212967     68.207291      2.640038      0.000135      0.132724
    3653.1004     80.074203     68.514511      2.646780      0.000257      0.134631
    3653.0004     76.732895     68.751724      2.649640      0.000346      0.135354
    3652.9004     70.593750     68.911407      2.647440      0.000356      0.134410
    3652.8004     63.975601     68.987106      2.640980      0.000352      0.131568
    3652.7004     59.244362     68.992508      2.632305      0.000357      0.127085
    3652.6004     56.703827     69.005432      2.623710      0.000302      0.121914
    3652.5004     55.825356     69.150894      2.616342      0.000228      0.117199
    3652.4004     55.880653     69.472443      2.609897      0.000213      0.113767
    3652.3004     55.963074     69.845657      2.604119      0.000246      0.112117
    3652.2004     55.435394     70.096848      2.599322      0.000265      0.112535
    3652.1004     55.355133     70.226562      2.597087      0.000292      0.115422
    3652.0004     57.192444     70.480225      2.599022      0.000568      0.120893
    3651.9004     60.018677     71.071701      2.605897      0.001279      0.127970
    3651.8004     62.724953     71.901688      2.617325      0.001796      0.134995
    3651.7004     66.167175     72.678802      2.631677      0.001320      0.141108
    3651.6004     71.011978     73.163208      2.645958      0.000515      0.145790
