# LAS format data
~Version Information
VERS.     2.00: CWLS LOG ASCII STANDARD - VERSION 2.0
WRAP.       NO: ONE LINE PER DEPTH STEP
~Well Information
#MNEM   .UNITS    DATA                           DESCRIPTION
#----   ------    ----                           -----------
STRT    .M        3881.9004                     :First Index Value
STOP    .M        50.2002                       :Last Index Value
STEP    .M        -0.1000                       :Frame Spacing
NULL    .         -999.2500                     :Absent Value
WELL    .         L07-05                        :Well Name   
FLD     .         UNKNOWN                       :Field Name  
CNTY    .                                       :County
STAT    .                                       :State
CTRY    .                                       :Country
LOC     .                                       :Location
API     .                                       :API Number
DATE    .                                       :Date
COMP    .         PETROLAND                     :Company Name
SRVC    .                                       :Service Company
~Parameter Information
#MNEM   .UNITS    VALUE                          DESCRIPTION
#----   ------    -----                          -----------
TDL     .M          3883.000                    :Total Depth (Logger)
TDD     .M          3886.000                    :Total Depth (Driller)   
UBID    .         7266                          :Unique Borehole Id  
PDAT    .         Mean Sea Level                :Permanent Datum 
EPD     .M           0.00000                    :Elevation of Permanent Datum (PDAT) above Mean Sea Level
LMF     .         Rotary Table                  :Logging Measured From (Name of Logging Elevation Reference) 
APD     .M          31.40000                    :Elevation of Depth Reference (LMF) Above Permanent Datum
EGL     .M         -30.60000                    :Elevation of Ground Level Above Mean Sea Level  
~Curve Information
#MNEM   .UNITS    API CODE                       CURVE DESCRIPTION
#----   ------    --------                       -----------------
DEPT    .M                                      :1     Index curve
GR      .GAPI                                   :2     L07-05
DT      .US/F                                   :3     L07-05
RHOB    .G/C3                                   :4     L07-05
DRHO    .G/C3                                   :5     L07-05
NPHI    .V/V                                    :6     L07-05
~Ascii Log Data
# ...
    3747.5005     89.999222     71.204453      2.667963      0.001849      0.161460
    3747.4005     88.323837     70.827789      2.663841      0.001286      0.158965
    3747.3005     87.061813     70.077103      2.658194      0.000617      0.154659
    3747.2005     84.216599     69.152451      2.653701      0.000350      0.149584
    3747.1005     79.121857     68.263596      2.651664      0.000487      0.144550
    3747.0005     73.220261     67.516495      2.652419      0.001935      0.140132
    3746.9005     68.865555     66.929489      2.655625      0.007522      0.136573
    3746.8005     67.318832     66.515884      2.660343      0.016343      0.133453
    3746.7005     68.527695     66.305557      2.665494      0.018229      0.130126
    3746.6005     71.940536     66.269348      2.670051      0.009607      0.126610
    3746.5005     76.250137     66.311890      2.673114      0.002055      0.123536
    3746.4005     78.801422     66.349350      2.674115      0.000316      0.121348
    3746.3005     76.342773     66.336380      2.672931      0.000304      0.119775
    3746.2005     68.611710     66.275620      2.670043      0.000388      0.118003
    3746.1005     61.175613     66.224274      2.666043      0.000412      0.115323
    3746.0005     58.632484     66.267990      2.660652      0.000389      0.111762
    3745.9005     59.454971     66.449020      2.653312      0.000356      0.108285
    3745.8005     60.836624     66.766464      2.643233      0.000279      0.105967
    3745.7005     62.017792     67.217987      2.630006      0.000149      0.105546
    3745.6005     63.672684     67.758102      2.614910      0.000039      0.107162
    3745.5005     67.079666     68.266525      2.599759     -0.000045      0.110288
    3745.4005     70.764130     68.545090      2.587135     -0.000359      0.113851
    3745.3005     71.397324     68.491196      2.579206     -0.001135      0.116757
    3745.2005     68.476807     68.199112      2.577572     -0.001349      0.118885
    3745.1005     63.958725     67.884399      2.581453     -0.000362      0.120520
    3745.0005     59.468208     67.712646      2.588099      0.001123      0.121841
    3744.9005     56.858345     67.736633      2.594051      0.001574      0.122893
    3744.8005     57.465622     67.957047      2.597332      0.000877      0.123222
    3744.7005     61.685745     68.313660      2.598352      0.000311      0.122542
    3744.6005     72.865417     68.665558      2.597867      0.000232      0.121376
    3744.5005     88.603500     68.850037      2.597113      0.003917      0.120745
    3744.4005    102.619431     68.859848      2.597385      0.018585      0.121338
    3744.3005    110.222946     68.844086      2.599119      0.024226      0.124139
    3744.2005    112.505676     68.984451      2.601372      0.013472      0.129829
    3744.1005    113.026093     69.300415      2.602827      0.003606      0.138292
    3744.0005    115.141693     69.639786      2.604543      0.000510      0.147159
    3743.9005    119.086746     69.860046      2.607812     -0.000118      0.154505
    3743.8005    121.929565     69.922272      2.613382     -0.001011      0.159628
    3743.7005    122.274597     69.895111      2.622318     -0.001419      0.161965
    3743.6005    120.827057     69.866119      2.634413     -0.000804      0.162113
    3743.5005    118.560455     69.818298      2.647582     -0.000180      0.161300
    3743.4005    116.697296     69.646164      2.658581      0.000043      0.161137
    3743.3005    115.994324     69.331757      2.666697      0.000212      0.162334
    3743.2005    118.103897     69.020523      2.671088      0.001180      0.164676
    3743.1005    118.539093     68.921814      2.672194      0.001821      0.167782
    3743.0005    113.755646     69.118515      2.671350      0.001201      0.171155
    3742.9005    105.520691     69.554459      2.671154      0.000474      0.174162
    3742.8005     96.694489     70.078568      2.671257      0.000133      0.175951
    3742.7005     88.861099     70.395844      2.670382     -0.000030      0.175748
    3742.6005     81.937073     70.240433      2.667085     -0.000047      0.173210
    3742.5005     76.380676     69.573090      2.660772      0.000031      0.167889
    3742.4005     73.139038     68.618958      2.651665      0.000122      0.160284
    3742.3005     73.493683     67.701385      2.643839      0.000143      0.152139
    3742.2005     76.943054     66.999054      2.638536      0.000125      0.144644
    3742.1005     82.399200     66.636627      2.635515      0.000133      0.138592
    3742.0005     90.457932     66.595383      2.634337      0.000161      0.133523
    3741.9005    101.125229     66.670517      2.633729      0.000186      0.129045
    3741.8005    113.444595     66.598022      2.632407      0.000200      0.125100
    3741.7005    126.324844     66.263107      2.629846      0.001101      0.121539
    3741.6005    137.348297     65.849640      2.626953      0.002270      0.118181
    3741.5005    143.727783     65.772034      2.625181      0.001805      0.115429
    3741.4005    147.103943     66.431458      2.625995      0.000636      0.115800
    3741.3005    148.643066     67.958038      2.629765      0.000091      0.122029
    3741.2005    146.888489     70.076263      2.636543      0.000144      0.134477
    3741.1005    141.363617     72.076309      2.645144      0.000299      0.152305
    3741.0005    134.097778     73.406219      2.654037      0.003058      0.169573
    3740.9005    126.872055     73.836975      2.662879      0.014895      0.179455
    3740.8005    120.638306     73.340134      2.671082      0.028837      0.180143
    3740.7005    115.722824     72.256226      2.677991      0.032853      0.175158
    3740.6005    112.418030     71.110779      2.682992      0.023000      0.167849
    3740.5005    108.594635     70.300613      2.684818      0.008990      0.160365
    3740.4005    102.741089     69.707291      2.683237      0.001761      0.153999
    3740.3005     98.125351     69.031311      2.678972      0.000336      0.149075
    3740.2005     97.545792     68.254227      2.672888      0.000102      0.144153
    3740.1005     99.664810     67.565659      2.665943     -0.000044      0.137896
    3740.0005    101.725555     67.078659      2.659579     -0.000021      0.131172
    3739.9005    102.156036     66.759842      2.655159      0.000117      0.126449
    3739.8005    101.589310     66.612793      2.652987      0.000216      0.125391
    3739.7005    101.585617     66.763504      2.653549      0.000225      0.128166
    3739.6005    102.657379     67.252701      2.656306      0.000190      0.132684
    3739.5005    103.861511     67.882141      2.659059      0.000145      0.136263
    3739.4005    104.449112     68.331375      2.660126      0.000092      0.138189
    3739.3005    104.122818     68.395523      2.658961      0.000020      0.139121
    3739.2005    102.689224     68.108658      2.656103     -0.000072      0.139449
    3739.1005    100.615860     67.647568      2.653335     -0.000140      0.139004
    3739.0005     98.608963     67.150848      2.652478     -0.000128      0.137501
    3738.9005     97.026215     66.697052      2.654448     -0.000021      0.135055
    3738.8005     96.159943     66.368042      2.659304      0.000172      0.132531
    3738.7005     95.825806     66.201355      2.666514      0.000572      0.130778
    3738.6005     95.265381     66.188721      2.674694      0.001241      0.130047
    3738.5005     94.519608     66.284698      2.682096      0.001620      0.130073
    3738.4005     94.333649     66.438080      2.687618      0.001162      0.130500
    3738.3005     94.601089     66.605270      2.690986      0.000481      0.131153
    3738.2005     94.913422     66.759918      2.692481      0.000227      0.132143
    3738.1005     95.003113     66.871307      2.692284      0.000181      0.133716
    3738.0005     94.028107     66.893509      2.691314      0.000163      0.135915
