# LAS format data
~Version Information
VERS.     2.00: CWLS LOG ASCII STANDARD - VERSION 2.0
WRAP.       NO: ONE LINE PER DEPTH STEP
~Well Information
#MNEM   .UNITS    DATA                           DESCRIPTION
#----   ------    ----                           -----------
STRT    .M        3881.9004                     :First Index Value
STOP    .M        50.2002                       :Last Index Value
STEP    .M        -0.1000                       :Frame Spacing
NULL    .         -999.2500                     :Absent Value
WELL    .         L07-05                        :Well Name   
FLD     .         UNKNOWN                       :Field Name  
CNTY    .                                       :County
STAT    .                                       :State
CTRY    .                                       :Country
LOC     .                                       :Location
API     .                                       :API Number
DATE    .                                       :Date
COMP    .         PETROLAND                     :Company Name
SRVC    .                                       :Service Company
~Parameter Information
#MNEM   .UNITS    VALUE                          DESCRIPTION
#----   ------    -----                          -----------
TDL     .M          3883.000                    :Total Depth (Logger)
TDD     .M          3886.000                    :Total Depth (Driller)   
UBID    .         7266                          :Unique Borehole Id  
PDAT    .         Mean Sea Level                :Permanent Datum 
EPD     .M           0.00000                    :Elevation of Permanent Datum (PDAT) above Mean Sea Level
LMF     .         Rotary Table                  :Logging Measured From (Name of Logging Elevation Reference) 
APD     .M          31.40000                    :Elevation of Depth Reference (LMF) Above Permanent Datum
EGL     .M         -30.60000                    :Elevation of Ground Level Above Mean Sea Level  
~Curve Information
#MNEM   .UNITS    API CODE                       CURVE DESCRIPTION
#----   ------    --------                       -----------------
DEPT    .M                                      :1     Index curve
GR      .GAPI                                   :2     L07-05
DT      .US/F                                   :3     L07-05
RHOB    .G/C3                                   :4     L07-05
DRHO    .G/C3                                   :5     L07-05
NPHI    .V/V                                    :6     L07-05
~Ascii Log Data
# ...
    3584.3003     75.948242     70.600281      2.562305      0.001078      0.202261
    3584.2003     82.724197     69.161285      2.570009      0.000405      0.184912
    3584.1003     88.155991     67.516373      2.585084      0.000069      0.162252
    3584.0003     87.307571     65.977371      2.602886     -0.000051      0.139856
    3583.9003     80.543259     65.105103      2.620096     -0.000008      0.121041
    3583.8003     72.759918     65.395355      2.633635      0.000074      0.108088
    3583.7003     67.601578     66.730576      2.643755      0.000127      0.103166
    3583.6003     65.254517     68.674652      2.652688      0.000168      0.105300
    3583.5003     71.851883     70.806854      2.660363      0.000211      0.111563
    3583.4003     84.276825     72.989670      2.665759      0.000243      0.120320
    3583.3003     94.316620     74.952271      2.668009      0.000246      0.131246
    3583.2003    105.744843     76.337372      2.664042      0.000198      0.143889
    3583.1003    119.274704     77.038391      2.654881      0.000143      0.157725
    3583.0003    127.887024     77.337662      2.644397      0.000250      0.171827
    3582.9003    133.346008     77.648880      2.637264      0.007328      0.185360
    3582.8003    138.955109     77.874054      2.635437      0.024131      0.198613
    3582.7003    142.358856     77.623062      2.639028      0.045143      0.210862
    3582.6003    142.693268     76.802597      2.645066      0.060072      0.220575
    3582.5003    141.386261     75.713745      2.649525      0.059993      0.226105
    3582.4003    139.113342     74.567322      2.649565      0.039481      0.226681
    3582.3003    135.614044     73.320694      2.646312      0.014791      0.223749
    3582.2003    129.884491     71.995255      2.643407      0.007869      0.219395
    3582.1003    120.962906     70.771576      2.644096      0.021856      0.214802
    3582.0003    111.084213     69.693863      2.650496      0.039592      0.209082
    3581.9003    103.291565     68.697052      2.661617      0.042854      0.200463
    3581.8003     96.517303     67.771820      2.672184      0.030562      0.188677
    3581.7003     88.771362     67.036667      2.677869      0.019230      0.175427
    3581.6003     80.560776     66.662064      2.677384      0.020001      0.163510
    3581.5003     72.819839     66.745422      2.671597      0.020095      0.154148
    3581.4003     66.151245     67.381912      2.662753      0.010448      0.146494
    3581.3003     61.272614     68.565598      2.654943      0.002228      0.139415
    3581.2003     58.272461     70.097961      2.651381      0.000240      0.132268
    3581.1003     57.553299     71.527573      2.652916      0.000192      0.126540
    3581.0003     60.108025     72.326675      2.657648      0.000262      0.124639
    3580.9003     66.923340     72.225266      2.663406      0.000281      0.126912
    3580.8003     75.938339     71.300949      2.668660      0.000264      0.132341
    3580.7003     81.636475     70.068207      2.672094      0.000242      0.139844
    3580.6003     81.693390     69.168869      2.673723      0.000225      0.148093
    3580.5003     78.316925     68.905365      2.673781      0.000209      0.155121
    3580.4003     73.731873     69.221970      2.671279      0.000186      0.158826
    3580.3003     69.690521     70.089783      2.664843      0.000151      0.157446
    3580.2003     67.367722     71.406326      2.654071      0.000094      0.150788
    3580.1003     67.217407     72.810928      2.640007      0.000016      0.140501
    3580.0003     70.288742     73.950455      2.624610     -0.000077      0.129011
    3579.9003     77.797470     74.898666      2.610456     -0.000177      0.118987
    3579.8003     88.454987     75.972946      2.599422     -0.000267      0.113331
    3579.7003     99.378952     77.161118      2.591702     -0.000288      0.114934
    3579.6003    107.678421     78.241348      2.585611     -0.000168      0.124759
    3579.5003    112.075974     79.083633      2.576115      0.000130      0.139673
    3579.4003    113.191956     79.456024      2.556519      0.000672      0.155442
    3579.3003    112.211121     79.118896      2.521890      0.001071      0.170761
    3579.2003    109.759369     78.270844      2.472487     -0.000840      0.185904
    3579.1003    106.143646     77.595200      2.415771     -0.008883      0.200042
    3579.0003    102.509369     77.320068      2.360814     -0.024081      0.211238
    3578.9003    100.148575     76.949402      2.316945     -0.040062      0.216617
    3578.8003     99.667023     76.182983      2.292902     -0.047153      0.214393
    3578.7003    101.415512     75.384262      2.292181     -0.041573      0.206018
    3578.6003    106.441406     74.992035      2.313956     -0.026672      0.195541
    3578.5003    113.774719     74.864349      2.356450     -0.010957      0.187906
    3578.4003    119.437317     74.640381      2.414927     -0.001925      0.185877
    3578.3003    121.888290     74.282791      2.479122      0.000658      0.187594
    3578.2003    122.731522     73.931290      2.541890      0.001384      0.189550
    3578.1003    122.893021     73.631516      2.596605      0.001217      0.190604
    3578.0003    122.887131     73.303223      2.637368      0.000603      0.190749
    3577.9003    122.623856     72.886215      2.661963      0.000312      0.190153
    3577.8003    121.712250     72.399780      2.672128      0.000330      0.189235
    3577.7003    120.504547     71.889313      2.670890      0.001373      0.188698
    3577.6003    118.863831     71.443481      2.660845      0.007372      0.188888
    3577.5003    115.968277     71.157166      2.647120      0.019499      0.189310
    3577.4003    113.351471     71.117111      2.633421      0.023585      0.188842
    3577.3003    112.792709     71.465134      2.622505      0.012803      0.185557
    3577.2003    113.183411     72.271194      2.616411      0.002809      0.178859
    3577.1003    112.716003     73.370895      2.617350      0.000269      0.171339
    3577.0003    112.257126     74.340103      2.625378      0.000073      0.166060
    3576.9003    114.701141     74.965088      2.638020      0.000162      0.163702
    3576.8003    119.084610     75.423981      2.651723      0.000330      0.163723
    3576.7003    122.459991     75.875488      2.662730      0.000404      0.165622
    3576.6003    124.193161     76.247742      2.669003      0.000390      0.169136
    3576.5003    126.124512     76.355347      2.669437      0.000257      0.174553
    3576.4003    129.288727     76.108337      2.665697      0.000055      0.181241
    3576.3003    133.041016     75.576401      2.660421     -0.000035      0.187989
    3576.2003    134.215088     74.946365      2.656373     -0.000017      0.193958
    3576.1003    131.693787     74.372849      2.654382      0.000011      0.199389
    3576.0003    127.224625     73.892792      2.653589      0.000021      0.204728
    3575.9003    122.743698     73.522598      2.654177      0.000022      0.209224
    3575.8003    118.971375     73.387238      2.656251      0.000291      0.211494
    3575.7003    116.226349     73.495895      2.659557      0.001570      0.210593
    3575.6003    115.666824     73.611954      2.663280      0.002189      0.206704
    3575.5003    116.885529     73.471771      2.667084      0.001278      0.201058
    3575.4003    117.466721     73.082535      2.671016      0.000391      0.195285
    3575.3003    116.186066     72.723541   -999.250000      0.000734      0.192445
    3575.2003    113.757874     72.465195   -999.250000   -999.250000   -999.250000
    3575.1003    112.455795   -999.250000   -999.250000   -999.250000   -999.250000
    3575.0003    111.294525   -999.250000   -999.250000   -999.250000   -999.250000
    3574.9003    109.027908   -999.250000   -999.250000   -999.250000   -999.250000
    3574.8003    107.398590   -999.250000   -999.250000   -999.250000   -999.250000
