# LAS format data
~Version Information
VERS.     2.00: CWLS LOG ASCII STANDARD - VERSION 2.0
WRAP.       NO: ONE LINE PER DEPTH STEP
~Well Information
#MNEM   .UNITS    DATA                           DESCRIPTION
#----   ------    ----                           -----------
STRT    .M        3881.9004                     :First Index Value
STOP    .M        50.2002                       :Last Index Value
STEP    .M        -0.1000                       :Frame Spacing
NULL    .         -999.2500                     :Absent Value
WELL    .         L07-05                        :Well Name   
FLD     .         UNKNOWN                       :Field Name  
CNTY    .                                       :County
STAT    .                                       :State
CTRY    .                                       :Country
LOC     .                                       :Location
API     .                                       :API Number
DATE    .                                       :Date
COMP    .         PETROLAND                     :Company Name
SRVC    .                                       :Service Company
~Parameter Information
#MNEM   .UNITS    VALUE                          DESCRIPTION
#----   ------    -----                          -----------
TDL     .M          3883.000                    :Total Depth (Logger)
TDD     .M          3886.000                    :Total Depth (Driller)   
UBID    .         7266                          :Unique Borehole Id  
PDAT    .         Mean Sea Level                :Permanent Datum 
EPD     .M           0.00000                    :Elevation of Permanent Datum (PDAT) above Mean Sea Level
LMF     .         Rotary Table                  :Logging Measured From (Name of Logging Elevation Reference) 
APD     .M          31.40000                    :Elevation of Depth Reference (LMF) Above Permanent Datum
EGL     .M         -30.60000                    :Elevation of Ground Level Above Mean Sea Level  
~Curve Information
#MNEM   .UNITS    API CODE                       CURVE DESCRIPTION
#----   ------    --------                       -----------------
DEPT    .M                                      :1     Index curve
GR      .GAPI                                   :2     L07-05
DT      .US/F                                   :3     L07-05
RHOB    .G/C3                                   :4     L07-05
DRHO    .G/C3                                   :5     L07-05
NPHI    .V/V                                    :6     L07-05
~Ascii Log Data
# ...
    3603.5006     48.653999     77.463287      2.556958      0.001026      0.155289
    3603.4006     49.790062     76.636124      2.570019      0.000442      0.150019
    3603.3006     50.165260     75.878403      2.578525      0.000327      0.145757
    3603.2006     50.288246     75.607056      2.579996      0.000303      0.144092
    3603.1006     50.866501     75.903275      2.574391      0.000374      0.145240
    3603.0006     53.844048     76.418472      2.562821      0.000963      0.147132
    3602.9006     58.593147     76.744080      2.547559      0.001608      0.148855
    3602.8006     61.469307     76.832840      2.530606      0.001263      0.151999
    3602.7006     60.537064     76.901321      2.513182      0.000355      0.157958
    3602.6006     57.396118     77.110092      2.496981     -0.000074      0.166590
    3602.5006     55.091805     77.539398      2.482860     -0.000110      0.176848
    3602.4006     55.382080     78.438248      2.471924     -0.000056      0.186989
    3602.3006     58.230774     80.153030      2.465455      0.000065      0.194567
    3602.2006     62.698784     82.638397      2.464000      0.000257      0.197564
    3602.1006     67.464142     85.041946      2.469254      0.001155      0.195313
    3602.0006     71.384415     86.408173      2.482076      0.005262      0.188629
    3601.9006     73.161575     86.266327      2.499814      0.014893      0.178973
    3601.8006     71.437912     84.862610      2.517084      0.025097      0.168598
    3601.7006     66.156448     82.820145      2.528922      0.026807      0.158772
    3601.6006     59.071762     80.669052      2.531942      0.018407      0.149700
    3601.5006     51.998047     78.735672      2.526533      0.007292      0.141430
    3601.4006     46.046844     77.179062      2.517035      0.000979      0.134277
    3601.3006     42.970016     76.159378      2.509751     -0.000113      0.129162
    3601.2006     43.326675     75.593796      2.508543     -0.000132      0.126904
    3601.1006     45.886314     75.228882      2.513670     -0.000056      0.128046
    3601.0006     48.967117     74.848679      2.521354      0.000032      0.131875
    3600.9006     51.495064     74.488678      2.527335      0.000118      0.137016
    3600.8006     52.821526     74.329468      2.529837      0.000177      0.142553
    3600.7006     53.314926     74.463486      2.529250      0.000200      0.147731
    3600.6006     54.208252     74.846054      2.527686      0.000193      0.151813
    3600.5006     56.263695     75.325012      2.527922      0.000161      0.154221
    3600.4006     59.144012     75.726166      2.532172      0.000127      0.155004
    3600.3006     62.628448     75.877045      2.541286      0.000121      0.154511
    3600.2006     67.309036     75.586807      2.554450      0.000147      0.153130
    3600.1006     72.620010     74.716797      2.569788      0.000183      0.151395
    3600.0006     77.269730     73.396545      2.585617      0.000207      0.149955
    3599.9006     81.242722     72.099106      2.599629      0.000212      0.149485
    3599.8006     85.344711     71.340073      2.609412      0.000189      0.150518
    3599.7006     90.475281     71.319260      2.613156      0.000134      0.153541
    3599.6006     97.099625     71.866745      2.610331      0.000053      0.158954
    3599.5006    103.811996     72.708252      2.601775     -0.000035      0.166323
    3599.4006    107.999863     73.826706      2.589234     -0.000105      0.174044
    3599.3006    109.129105     75.301804      2.575527     -0.000211      0.180202
    3599.2006    109.319199     76.807251      2.563443     -0.001282      0.183612
    3599.1006    110.332962     77.691513      2.555905     -0.006428      0.184487
    3599.0006    111.074677     77.693222      2.554337     -0.017187      0.184569
    3598.9006    109.388214     77.098648      2.558834     -0.022094      0.185221
    3598.8006    104.602173     76.140945      2.568408     -0.009188      0.186408
    3598.7006     97.727142     74.704803      2.580826      0.011191      0.186820
    3598.6006     90.312546     72.687271      2.593154      0.019805      0.183941
    3598.5006     84.152649     70.363083      2.604012      0.012494      0.176113
    3598.4006     81.906586     68.419495      2.614568      0.003082      0.165251
    3598.3006     85.275665     67.446213      2.625618      0.000168      0.156143
    3598.2006     93.002975     67.371933      2.637227      0.000211      0.153721
    3598.1006    101.764648     67.844666      2.648540      0.000888      0.160122
    3598.0006    109.627670     68.816376      2.657304      0.001366      0.172847
    3597.9006    116.069107     70.217316      2.661860      0.000944      0.186235
    3597.8006    119.813690     71.582535      2.662066      0.000365      0.195407
    3597.7006    120.971130     72.424042      2.659770      0.000172      0.198664
    3597.6006    121.099091     72.705536      2.657594      0.000123      0.196687
    3597.5006    121.086472     72.676819      2.657168      0.000064      0.191630
    3597.4006    120.797348     72.415436      2.659214     -0.000003      0.185555
    3597.3006    120.214111     71.969650      2.663076      0.000026      0.180628
    3597.2006    120.494431     71.590668      2.666615      0.000657      0.178424
    3597.1006    122.651184     71.631897      2.668456      0.001209      0.179337
    3597.0006    126.201431     72.179245      2.668624      0.000943      0.182436
    3596.9006    128.852325     73.011490      2.667555      0.001477      0.186563
    3596.8006    128.988617     73.746353      2.666087      0.001842      0.189447
    3596.7006    126.953278     74.147827      2.664970      0.000233      0.189672
    3596.6006    124.878769     74.181961      2.665556     -0.000803      0.187679
    3596.5006    122.569061     73.884369      2.667764     -0.000454      0.184940
    3596.4006    118.833664     73.378235      2.670617     -0.000038      0.182819
    3596.3003    115.469757     72.859329      2.673584      0.000063      0.181943
    3596.2003    114.265549     72.575134      2.676186     -0.000317      0.182816
    3596.1003    115.442993     72.647339      2.678203     -0.001407      0.185337
    3596.0003    118.422562     73.057007      2.680572     -0.001531      0.189043
    3595.9003    121.583313     73.594193      2.683989     -0.000711      0.192585
    3595.8003    123.715317     73.891846      2.688829     -0.000065      0.194854
    3595.7003    124.763336     73.654846      2.695169      0.000154      0.194858
    3595.6003    124.632004     72.987823      2.701822      0.003675      0.191780
    3595.5003    122.795166     72.326279      2.708080      0.015904      0.185955
    3595.4003    121.978546     72.027527      2.711652      0.026869      0.179818
    3595.3003    121.486069     71.872421      2.712127      0.028193      0.176053
    3595.2003    117.397141     71.381119      2.710012      0.017095      0.175063
    3595.1003    110.080704     70.296463      2.706116      0.006144      0.175758
    3595.0003    100.251312     68.851318      2.701365      0.001479      0.175678
    3594.9003     86.316116     67.431061      2.696602      0.000410      0.172265
    3594.8003     74.230179     66.287460      2.691684      0.012893      0.159306
    3594.7003     67.107330     65.469757      2.685618      0.035954      0.137543
    3594.6003     65.052261     65.051529      2.677101      0.043990      0.114843
    3594.5003     65.439392     65.152710      2.667015      0.032896      0.097894
    3594.4003     66.327255     65.686646      2.656504      0.014870      0.087193
    3594.3003     67.659531     66.191956      2.647611      0.004670      0.081825
    3594.2003     69.390198     66.221634      2.642255      0.007918      0.082714
    3594.1003     71.330399     66.079071      2.640551      0.020595      0.089330
    3594.0003     74.038895     66.336411      2.640321      0.029774      0.098002
