# LAS format data
~Version Information
VERS.     2.00: CWLS LOG ASCII STANDARD - VERSION 2.0
WRAP.       NO: ONE LINE PER DEPTH STEP
~Well Information
#MNEM   .UNITS    DATA                           DESCRIPTION
#----   ------    ----                           -----------
STRT    .M        3881.9004                     :First Index Value
STOP    .M        50.2002                       :Last Index Value
STEP    .M        -0.1000                       :Frame Spacing
NULL    .         -999.2500                     :Absent Value
WELL    .         L07-05                        :Well Name   
FLD     .         UNKNOWN                       :Field Name  
CNTY    .                                       :County
STAT    .                                       :State
CTRY    .                                       :Country
LOC     .                                       :Location
API     .                                       :API Number
DATE    .                                       :Date
COMP    .         PETROLAND                     :Company Name
SRVC    .                                       :Service Company
~Parameter Information
#MNEM   .UNITS    VALUE                          DESCRIPTION
#----   ------    -----                          -----------
TDL     .M          3883.000                    :Total Depth (Logger)
TDD     .M          3886.000                    :Total Depth (Driller)   
UBID    .         7266                          :Unique Borehole Id  
PDAT    .         Mean Sea Level                :Permanent Datum 
EPD     .M           0.00000                    :Elevation of Permanent Datum (PDAT) above Mean Sea Level
LMF     .         Rotary Table                  :Logging Measured From (Name of Logging Elevation Reference) 
APD     .M          31.40000                    :Elevation of Depth Reference (LMF) Above Permanent Datum
EGL     .M         -30.60000                    :Elevation of Ground Level Above Mean Sea Level  
~Curve Information
#MNEM   .UNITS    API CODE                       CURVE DESCRIPTION
#----   ------    --------                       -----------------
DEPT    .M                                      :1     Index curve
GR      .GAPI                                   :2     L07-05
DT      .US/F                                   :3     L07-05
RHOB    .G/C3                                   :4     L07-05
DRHO    .G/C3                                   :5     L07-05
NPHI    .V/V                                    :6     L07-05
~Ascii Log Data
    3881.9004   -999.250000   -999.250000   -999.250000   -999.250000   -999.250000
    3881.8004   -999.250000   -999.250000   -999.250000   -999.250000   -999.250000
    3881.7004   -999.250000   -999.250000   -999.250000   -999.250000   -999.250000
    3881.6004    131.855133   -999.250000   -999.250000     -0.116287   -999.250000
    3881.5004    131.662598   -999.250000   -999.250000     -0.112085   -999.250000
    3881.4004    129.399323   -999.250000   -999.250000     -0.105497   -999.250000
    3881.3004    127.404572   -999.250000   -999.250000     -0.100287   -999.250000
    3881.2004    127.300903   -999.250000      2.558726     -0.099746   -999.250000
    3881.1004    128.883545   -999.250000      2.563357     -0.106633   -999.250000
    3881.0004    130.834351   -999.250000      2.566799     -0.104990   -999.250000
    3880.9004    132.168823   -999.250000      2.568226     -0.088874   -999.250000
    3880.8004    132.270538   -999.250000      2.568965     -0.066613   -999.250000
    3880.7004    132.286560   -999.250000      2.571652     -0.041911   -999.250000
    3880.6004    132.663849   -999.250000      2.578465     -0.018008   -999.250000
    3880.5004    132.329834   -999.250000      2.592420     -0.005944   -999.250000
    3880.4004    130.895660   -999.250000      2.610656     -0.002647   -999.250000
    3880.3004    129.065552   -999.250000      2.629858     -0.001123   -999.250000
    3880.2004    128.446014   -999.250000      2.646742     -0.000151   -999.250000
    3880.1004    129.295654   -999.250000      2.657926      0.000177   -999.250000
    3880.0004    130.849365   -999.250000      2.662938      0.000296   -999.250000
    3879.9004    131.825287   -999.250000      2.661654      0.000966   -999.250000
    3879.8004    131.703552   -999.250000      2.654894      0.001403   -999.250000
    3879.7004    130.706329   -999.250000      2.644570      0.000937   -999.250000
    3879.6004    129.629089   -999.250000      2.634065      0.000376   -999.250000
    3879.5004    127.744629   -999.250000      2.624853      0.000146   -999.250000
    3879.4004    124.490143   -999.250000      2.617168      0.000158   -999.250000
    3879.3004    121.927475   -999.250000      2.611146      0.000250   -999.250000
    3879.2004    120.909668   -999.250000      2.605922      0.000329   -999.250000
    3879.1004    121.123215   -999.250000      2.601270      0.000357   -999.250000
    3879.0004    121.863846   -999.250000      2.599265      0.000303   -999.250000
    3878.9004    122.392990   -999.250000      2.601317      0.000204   -999.250000
    3878.8004    122.307373   -999.250000      2.606999      0.000124   -999.250000
    3878.7004    122.016434   -999.250000      2.616022      0.011253   -999.250000
    3878.6004    122.326202   -999.250000      2.626840      0.030362   -999.250000
    3878.5004    123.755402   -999.250000      2.637389      0.043509   -999.250000
    3878.4004    125.988144   -999.250000      2.646677      0.047610   -999.250000
    3878.3004    128.049713   -999.250000      2.654096      0.049984   -999.250000
    3878.2004    129.136322   -999.250000      2.659700      0.059392   -999.250000
    3878.1004    128.362183   -999.250000      2.663639      0.064273   -999.250000
    3878.0004    126.438812   -999.250000      2.667445      0.059078   -999.250000
    3877.9004    124.937256     65.911026      2.672989      0.053566   -999.250000
    3877.8004    124.514969     65.131104      2.682679      0.048178   -999.250000
    3877.7004    124.312408     64.201752      2.695966      0.040683   -999.250000
    3877.6004    123.036133     63.508415      2.710318      0.035019   -999.250000
    3877.5004    120.929398     63.361557      2.722148      0.027413   -999.250000
    3877.4004    119.217148     63.498352      2.728982      0.017083   -999.250000
    3877.3004    118.711975     63.639969      2.729631      0.016320   -999.250000
    3877.2004    119.531326     63.713821      2.726237      0.019702   -999.250000
    3877.1004    121.190308     63.962753      2.722562      0.013272   -999.250000
    3877.0004    122.965759     64.608551      2.720247      0.003759   -999.250000
    3876.9004    124.154922     65.433350      2.719242      0.000324   -999.250000
    3876.8004    124.713074     65.926331      2.718429     -0.000182   -999.250000
    3876.7004    125.285309     65.762558      2.715744     -0.001082   -999.250000
    3876.6004    126.007874     65.073257      2.710511     -0.001854   -999.250000
    3876.5004    126.475494     64.181046      2.704064     -0.001468   -999.250000
    3876.4004    127.045242     63.273705      2.697548     -0.000516   -999.250000
    3876.3004    128.389465     62.421768      2.691829     -0.000036   -999.250000
    3876.2004    130.449158     61.676926      2.687871      0.000095   -999.250000
    3876.1004    132.493042     61.118294      2.686764      0.000179   -999.250000
    3876.0004    133.803589     60.730324      2.689299      0.000197   -999.250000
    3875.9004    133.949066     60.487999      2.695520      0.000164   -999.250000
    3875.8004    132.906128     60.532806      2.703953      0.000139   -999.250000
    3875.7004    131.382172     61.234352      2.712831      0.000160   -999.250000
    3875.6004    131.157684     62.892563      2.720827      0.000215   -999.250000
    3875.5004    134.554291     65.268555      2.726809      0.000327   -999.250000
    3875.4004    142.032837     67.724167      2.730145      0.000712   -999.250000
    3875.3004    150.408936     69.803238      2.731037      0.001453   -999.250000
    3875.2004    157.194061     71.776794      2.729730      0.001875   -999.250000
    3875.1004    162.592072     73.820587      2.726398      0.001707   -999.250000
    3875.0004    167.188629     75.517258      2.722399      0.004661   -999.250000
    3874.9004    171.769287     76.682007      2.718306      0.018485   -999.250000
    3874.8004    176.703064     77.891342      2.712659      0.043307   -999.250000
    3874.7004    181.420929     79.817429      2.702780      0.061222   -999.250000
    3874.6004    184.770050     82.140610      2.685392      0.054898   -999.250000
    3874.5004    184.808319     83.798813      2.658498      0.030957   -999.250000
    3874.4004    179.217957     83.967407      2.622509      0.013842   -999.250000
    3874.3004    170.072083     82.615067      2.580455      0.025157   -999.250000
    3874.2004    163.605347     80.542358      2.538769      0.062695   -999.250000
    3874.1004    161.015411     78.854065      2.504906      0.103322   -999.250000
    3874.0004    158.879333     78.245392      2.485168      0.126960   -999.250000
    3873.9004    156.192780     78.808838      2.483172      0.129826   -999.250000
    3873.8004    153.492767     80.339294      2.494489      0.114197   -999.250000
    3873.7004    151.144928     82.510757      2.510156      0.081959   -999.250000
    3873.6004    148.375549     84.480469      2.520320      0.042172   -999.250000
    3873.5004    144.286652     85.035751      2.517418      0.014993   -999.250000
    3873.4004    139.043762     83.557281      2.501263      0.018185   -999.250000
    3873.3004    133.617035     80.436081      2.478958      0.047033   -999.250000
    3873.2004    128.762177     76.528381      2.456477      0.078443   -999.250000
    3873.1004    125.021790     72.707336      2.438526      0.095173   -999.250000
    3873.0004    122.846664     69.526764      2.430293      0.096297   -999.250000
    3872.9004    122.829605     67.365814      2.434607      0.075139   -999.250000
    3872.8004    124.543533     66.390823      2.453709      0.035440   -999.250000
    3872.7004    125.853760     66.408096      2.487415      0.007435   -999.250000
    3872.6004    125.598389     67.031204      2.529210      0.000458   -999.250000
    3872.5004    125.271454     67.877182      2.571162      0.000082   -999.250000
    3872.4004    127.291168     68.658478      2.608273      0.000109   -999.250000
