# LAS format data
~Version Information
VERS.     2.00: CWLS LOG ASCII STANDARD - VERSION 2.0
WRAP.       NO: ONE LINE PER DEPTH STEP
~Well Information
#MNEM   .UNITS    DATA                           DESCRIPTION
#----   ------    ----                           -----------
STRT    .M        3881.9004                     :First Index Value
STOP    .M        50.2002                       :Last Index Value
STEP    .M        -0.1000                       :Frame Spacing
NULL    .         -999.2500                     :Absent Value
WELL    .         L07-05                        :Well Name   
FLD     .         UNKNOWN                       :Field Name  
CNTY    .                                       :County
STAT    .                                       :State
CTRY    .                                       :Country
LOC     .                                       :Location
API     .                                       :API Number
DATE    .                                       :Date
COMP    .         PETROLAND                     :Company Name
SRVC    .                                       :Service Company
~Parameter Information
#MNEM   .UNITS    VALUE                          DESCRIPTION
#----   ------    -----                          -----------
TDL     .M          3883.000                    :Total Depth (Logger)
TDD     .M          3886.000                    :Total Depth (Driller)   
UBID    .         7266                          :Unique Borehole Id  
PDAT    .         Mean Sea Level                :Permanent Datum 
EPD     .M           0.00000                    :Elevation of Permanent Datum (PDAT) above Mean Sea Level
LMF     .         Rotary Table                  :Logging Measured From (Name of Logging Elevation Reference) 
APD     .M          31.40000                    :Elevation of Depth Reference (LMF) Above Permanent Datum
EGL     .M         -30.60000                    :Elevation of Ground Level Above Mean Sea Level  
~Curve Information
#MNEM   .UNITS    API CODE                       CURVE DESCRIPTION
#----   ------    --------                       -----------------
DEPT    .M                                      :1     Index curve
GR      .GAPI                                   :2     L07-05
DT      .US/F                                   :3     L07-05
RHOB    .G/C3                                   :4     L07-05
DRHO    .G/C3                                   :5     L07-05
NPHI    .V/V                                    :6     L07-05
~Ascii Log Data
# ...
    3843.5004     29.908676     74.211823      2.450284     -0.000190   -999.250000
    3843.4004     29.744644     73.856277      2.451643     -0.000171   -999.250000
    3843.3004     29.084023     73.680603      2.454461     -0.000153   -999.250000
    3843.2004     28.107311     73.751022      2.457091     -0.000156   -999.250000
    3843.1004     27.069118     74.041733      2.457898     -0.000175   -999.250000
    3843.0004     26.375065     74.542877      2.455925     -0.000187   -999.250000
    3842.9004     26.069679     75.238846      2.451131     -0.000174   -999.250000
    3842.8004     25.784119     76.034302      2.444256     -0.000133   -999.250000
    3842.7004     25.499573     76.800217      2.436536     -0.000075   -999.250000
    3842.6004     25.795494     77.403351      2.429299     -0.000016   -999.250000
    3842.5004     26.946697     77.758057      2.423206      0.000021   -999.250000
    3842.4004     28.149319     77.789658      2.418374      0.000005   -999.250000
    3842.3004     28.409439     77.466812      2.414899     -0.000068   -999.250000
    3842.2004     27.785446     76.824982      2.412663     -0.000158   -999.250000
    3842.1004     26.781204     75.949234      2.411581     -0.000221   -999.250000
    3842.0004     25.919010     74.923828      2.412058     -0.000248   -999.250000
    3841.9004     25.666752     73.803726      2.414894     -0.000263   -999.250000
    3841.8004     26.308826     72.705307      2.421102     -0.000274   -999.250000
    3841.7004     27.892593     71.730515      2.431503     -0.000267   -999.250000
    3841.6004     30.353874     70.990479      2.445294     -0.000250   -999.250000
    3841.5004     33.780525     70.582230      2.460440     -0.000238   -999.250000
    3841.4004     38.212799     70.536026      2.475324     -0.000242   -999.250000
    3841.3004     43.485336     70.778366      2.488228     -0.000259   -999.250000
    3841.2004     50.431244     71.171799      2.498082     -0.000278   -999.250000
    3841.1006     58.066391     71.723862      2.505146     -0.000282   -999.250000
    3841.0006     62.005630     72.602509      2.510143     -0.000183   -999.250000
    3840.9006     59.106873     73.939804      2.512286      0.000331   -999.250000
    3840.8006     51.053932     75.577133      2.510024      0.000979   -999.250000
    3840.7006     42.477486     77.242661      2.503022      0.000879   -999.250000
    3840.6006     36.184601     78.849426      2.489665      0.000308   -999.250000
    3840.5006     32.045082     80.294067      2.470008      0.000058   -999.250000
    3840.4006     28.836697     81.261108      2.447761      0.000094   -999.250000
    3840.3006     26.599434     81.383423      2.426115      0.000535   -999.250000
    3840.2006     25.550888     80.602783      2.407723      0.004534   -999.250000
    3840.1006     24.872646     79.176941      2.394562      0.016637   -999.250000
    3840.0006     23.616619     77.504181      2.389132      0.021459   -999.250000
    3839.9006     21.760307     75.875336      2.391121      0.011608   -999.250000
    3839.8006     19.882088     74.419601      2.398559      0.002595   -999.250000
    3839.7006     19.512444     73.313477      2.409472      0.000325   -999.250000
    3839.6006     21.355797     72.776993      2.420938      0.000212   -999.250000
    3839.5006     25.253647     72.698318      2.431523      0.000137   -999.250000
    3839.4006     29.319229     72.679840      2.441110      0.000088   -999.250000
    3839.3006     32.256767     72.387970      2.450352      0.000122   -999.250000
    3839.2006     34.350235     71.856049      2.460147      0.000170   -999.250000
    3839.1006     36.272812     71.410278      2.470225      0.000760   -999.250000
    3839.0006     38.310539     71.296570      2.480526      0.001767   -999.250000
    3838.9006     39.933250     71.550125      2.490555      0.001459   -999.250000
    3838.8006     41.344543     72.015121      2.499468      0.000477   -999.250000
    3838.7006     42.799019     72.480179      2.507431     -0.000013   -999.250000
    3838.6006     43.127625     72.791763      2.513487     -0.000078   -999.250000
    3838.5006     42.501816     72.894043      2.516112     -0.000059   -999.250000
    3838.4006     41.706253     72.809738      2.515452     -0.000075   -999.250000
    3838.3006     41.080917     72.583725      2.511902     -0.000175   -999.250000
    3838.2006     41.101013     72.265503      2.506924     -0.000268   -999.250000
    3838.1006     41.942108     71.933289      2.502019     -0.000263   -999.250000
    3838.0006     42.300079     71.722092      2.498913     -0.000220   -999.250000
    3837.9006     42.003387     71.816681      2.497299     -0.000204   -999.250000
    3837.8006     41.509438     72.343292      2.496398     -0.000234   -999.250000
    3837.7006     40.032478     73.282150      2.495516     -0.000316   -999.250000
    3837.6006     37.373001     74.539658      2.493314     -0.000376   -999.250000
    3837.5006     33.941628     75.951660      2.488953     -0.000338   -999.250000
    3837.4006     31.557747     77.419769      2.479692     -0.000254   -999.250000
    3837.3006     30.426720     78.742157      2.464867     -0.000171   -999.250000
    3837.2006     29.710529     79.747452      2.445538     -0.000092   -999.250000
    3837.1006     28.300049     80.346436      2.424994     -0.000067   -999.250000
    3837.0006     26.443398     80.448013      2.406872     -0.000085   -999.250000
    3836.9006     25.162506     80.047470      2.393863     -0.000097   -999.250000
    3836.8006     24.875153     79.215561      2.387776     -0.000918   -999.250000
    3836.7006     24.965752     78.116776      2.386839     -0.002013   -999.250000
    3836.6006     24.439579     77.029007      2.387820     -0.001628   -999.250000
    3836.5006     23.062469     76.208710      2.388777     -0.000663   -999.250000
    3836.4006     21.587570     75.834320      2.389549     -0.000244   -999.250000
    3836.3006     21.078232     75.880661      2.390980     -0.000208   -999.250000
    3836.2006     21.378490     76.196167      2.393952     -0.000238   -999.250000
    3836.1006     21.540359     76.576324      2.398008     -0.000245   -999.250000
    3836.0006     20.740162     76.839111      2.402246     -0.000207   -999.250000
    3835.9006     19.479496     76.811432      2.404860     -0.000173   -999.250000
    3835.8006     18.762280     76.445694      2.405422     -0.000186   -999.250000
    3835.7006     19.072170     75.826080      2.405310     -0.000197   -999.250000
    3835.6006     19.757027     75.098572      2.406347      0.000204   -999.250000
    3835.5006     20.228241     74.384735      2.409487      0.001029   -999.250000
    3835.4006     21.204144     73.793671      2.415133      0.001176   -999.250000
    3835.3006     22.331345     73.459030      2.421631      0.000531   -999.250000
    3835.2006     22.401684     73.414627      2.427112      0.000015   -999.250000
    3835.1006     21.117481     73.561493      2.430629     -0.000127   -999.250000
    3835.0006     19.491020     73.678207      2.432322     -0.000120   -999.250000
    3834.9006     18.608158     73.605698      2.433311     -0.000073   -999.250000
    3834.8006     18.657639     73.380295      2.434952     -0.000026   -999.250000
    3834.7006     18.963932     73.182861      2.437938     -0.000002   -999.250000
    3834.6006     18.828403     73.133408      2.441798      0.000003   -999.250000
    3834.5006     18.327957     73.177170      2.445234      0.000018   -999.250000
    3834.4006     17.756756     73.204605      2.447204      0.000056   -999.250000
    3834.3006     17.055237     73.186478      2.447210      0.000104   -999.250000
    3834.2006     16.421997     73.131500      2.445075      0.000213   -999.250000
    3834.1006     16.471687     72.983810      2.441130      0.000659   -999.250000
    3834.0006     17.451397     72.688553      2.436193      0.001553   -999.250000
