# LAS format data
~Version Information
VERS.     2.00: CWLS LOG ASCII STANDARD - VERSION 2.0
WRAP.       NO: ONE LINE PER DEPTH STEP
~Well Information
#MNEM   .UNITS    DATA                           DESCRIPTION
#----   ------    ----                           -----------
STRT    .M        3881.9004                     :First Index Value
STOP    .M        50.2002                       :Last Index Value
STEP    .M        -0.1000                       :Frame Spacing
NULL    .         -999.2500                     :Absent Value
WELL    .         L07-05                        :Well Name   
FLD     .         UNKNOWN                       :Field Name  
CNTY    .                                       :County
STAT    .                                       :State
CTRY    .                                       :Country
LOC     .                                       :Location
API     .                                       :API Number
DATE    .                                       :Date
COMP    .         PETROLAND                     :Company Name
SRVC    .                                       :Service Company
~Parameter Information
#MNEM   .UNITS    VALUE                          DESCRIPTION
#----   ------    -----                          -----------
TDL     .M          3883.000                    :Total Depth (Logger)
TDD     .M          3886.000                    :Total Depth (Driller)   
UBID    .         7266                          :Unique Borehole Id  
PDAT    .         Mean Sea Level                :Permanent Datum 
EPD     .M           0.00000                    :Elevation of Permanent Datum (PDAT) above Mean Sea Level
LMF     .         Rotary Table                  :Logging Measured From (Name of Logging Elevation Reference) 
APD     .M          31.40000                    :Elevation of Depth Reference (LMF) Above Permanent Datum
EGL     .M         -30.60000                    :Elevation of Ground Level Above Mean Sea Level  
~Curve Information
#MNEM   .UNITS    API CODE                       CURVE DESCRIPTION
#----   ------    --------                       -----------------
DEPT    .M                                      :1     Index curve
GR      .GAPI                                   :2     L07-05
DT      .US/F                                   :3     L07-05
RHOB    .G/C3                                   :4     L07-05
DRHO    .G/C3                                   :5     L07-05
NPHI    .V/V                                    :6     L07-05
~Ascii Log Data
# ...
    3785.9003     32.065605     72.205658      2.511458      0.000366      0.135821
    3785.8003     28.456757     73.712860      2.508743      0.000567      0.143752
    3785.7003     25.620319     75.604553      2.496533      0.001851      0.154823
    3785.6003     24.204708     77.755264      2.475240      0.002222      0.167234
    3785.5003     24.630665     79.775528      2.448050      0.001168      0.179083
    3785.4003     27.036549     81.254318      2.418767      0.000259      0.188595
    3785.3003     33.196136     81.947662      2.396557     -0.000016      0.194516
    3785.2003     42.051064     81.813141      2.383948     -0.000011      0.197325
    3785.1003     48.475342     80.853897      2.383177      0.000062      0.197756
    3785.0003     50.332161     79.271118      2.393584      0.000113      0.194351
    3784.9003     48.862190     77.416443      2.411785      0.000280      0.185867
    3784.8003     44.930542     75.634827      2.433977      0.001153      0.173128
    3784.7003     40.417175     74.028061      2.455978      0.001656      0.158164
    3784.6003     36.662819     72.715973      2.474518      0.001019      0.143920
    3784.5003     33.055817     71.828262      2.487084      0.000291      0.132385
    3784.4003     30.582466     71.391922      2.494514     -0.000049      0.123804
    3784.3003     30.466980     71.297531      2.498330     -0.000244      0.117878
    3784.2003     32.851624     71.316422      2.499726     -0.001007      0.113932
    3784.1003     37.477013     71.298065      2.499683     -0.001547      0.112482
    3784.0003     43.627113     71.399521      2.498694     -0.000959      0.114351
    3783.9003     48.107880     71.895081      2.496073     -0.000232      0.119649
    3783.8003     49.302544     72.872849      2.490636      0.000061      0.128459
    3783.7003     47.925232     74.085388      2.482183      0.000200      0.139464
    3783.6003     43.287560     75.229797      2.470631      0.000291      0.150956
    3783.5003     37.000252     76.044647      2.457338     -0.000007      0.160250
    3783.4003     32.250771     76.366425      2.444424     -0.001012      0.165645
    3783.3003     28.174534     76.148514      2.433484     -0.002072      0.167977
    3783.2003     24.352165     75.446823      2.425565     -0.002306      0.168273
    3783.1003     22.389202     74.481323      2.420705     -0.001410      0.167455
    3783.0003     25.382507     73.520569      2.419397      0.000111      0.166185
    3782.9003     31.864880     72.724411      2.421667      0.000871      0.164715
    3782.8003     36.827629     72.117294      2.427323     -0.000385      0.162910
    3782.7003     38.535011     71.702545      2.436475     -0.001672      0.160282
    3782.6003     38.522919     71.516296      2.447953     -0.001187      0.156614
    3782.5003     38.322540     71.478363      2.461194     -0.000281      0.151967
    3782.4003     38.989403     71.416351      2.475876      0.000057      0.146693
    3782.3003     40.585960     71.259323      2.490522      0.000113      0.142181
    3782.2003     41.910194     71.143204      2.504133      0.000127      0.139663
    3782.1003     41.790405     71.255280      2.515364      0.000104      0.138927
    3782.0003     39.919830     71.600555      2.523157      0.000047      0.138667
    3781.9003     36.537498     72.053284      2.526465     -0.000007      0.137976
    3781.8003     32.975235     72.546967      2.524196     -0.000069      0.136825
    3781.7003     31.105492     73.146881      2.516726     -0.000374      0.136357
    3781.6003     32.528755     73.883530      2.505144     -0.001210      0.138638
    3781.5003     37.594978     74.674805      2.491398     -0.001876      0.144782
    3781.4003     45.279228     75.454453      2.478013     -0.001257      0.154059
    3781.3003     54.616180     76.178513      2.467900      0.001191      0.164576
    3781.2003     65.231613     76.763290      2.463977      0.008041      0.173987
    3781.1003     75.317230     77.059662      2.468453      0.020986      0.179475
    3781.0003     80.301071     76.923828      2.482592      0.031798      0.178542
    3780.9003     78.425079     76.301163      2.506843      0.030341      0.171393
    3780.8003     74.139679     75.210983      2.538300      0.018017      0.160992
    3780.7003     72.405121     73.789200      2.571105      0.005705      0.150808
    3780.6003     75.309708     72.301636      2.599841      0.000623      0.142740
    3780.5003     83.270828     71.083847      2.620784      0.000271      0.137828
    3780.4003     91.691895     70.433990      2.631665      0.000200      0.136897
    3780.3003     94.791000     70.467209      2.633175      0.000152      0.139988
    3780.2003     92.100418     71.146149      2.629276      0.000135      0.146158
    3780.1003     85.120316     72.262344      2.624049      0.000144      0.153514
    3780.0003     75.279175     73.466248      2.619546      0.000174      0.160414
    3779.9003     67.532166     74.405167      2.616308      0.000201      0.165935
    3779.8003     65.352097     74.975662      2.612370      0.000205      0.170020
    3779.7003     66.914200     75.291168      2.605462      0.000190      0.173022
    3779.6003     67.870529     75.516830      2.595819      0.000165      0.175059
    3779.5003     65.362946     75.741959      2.585777      0.000142      0.175855
    3779.4003     60.036812     75.882416      2.577818      0.000127      0.174700
    3779.3003     54.101395     75.771118      2.573905      0.000122      0.171110
    3779.2003     49.671928     75.378113      2.573058      0.000123      0.165282
    3779.1003     48.033798     74.892136      2.571725      0.000143      0.158491
    3779.0003     48.652374     74.560089      2.566213      0.000297      0.152880
    3778.9003     49.483246     74.538849      2.555347      0.000854      0.150806
    3778.8003     48.383636     74.892639      2.541529      0.001668      0.153516
    3778.7003     44.859894     75.623291      2.528576      0.001771      0.159683
    3778.6003     40.275589     76.608810      2.518793      0.000897      0.166305
    3778.5003     36.457451     77.562424      2.512168      0.000173      0.170556
    3778.4003     34.574387     78.111969      2.507423      0.000094      0.171095
    3778.3003     35.164337     77.970505      2.503593      0.000413      0.168234
    3778.2003     38.618034     77.140991      2.500081      0.000755      0.163004
    3778.1003     45.874992     75.863892      2.497831      0.000063      0.156568
    3778.0003     58.754608     74.443100      2.498726     -0.001331      0.150809
    3777.9003     76.926865     73.125168      2.503921     -0.001421      0.147552
    3777.8003     92.203491     72.250320      2.514018     -0.000465      0.147035
    3777.7003     98.367889     72.107956      2.528605      0.000024      0.147712
    3777.6003    100.029861     72.529297      2.546248     -0.000097      0.147764
    3777.5003    102.640656     72.950836      2.565097     -0.000912      0.146851
    3777.4003    105.997223     73.027267      2.583554     -0.001834      0.146102
    3777.3003    106.711105     72.799942      2.600182     -0.001431      0.146555
    3777.2003    101.980179     72.378571      2.613546     -0.000367      0.147864
    3777.1003     93.157730     71.727524      2.623623      0.000089      0.148413
    3777.0003     84.754730     70.982895      2.631335      0.000217      0.146843
    3776.9003     80.404510     70.451248      2.637140      0.000892      0.143234
    3776.8003     80.296051     70.189606      2.641562      0.001798      0.139083
    3776.7003     82.352554     70.114487      2.644838      0.001747      0.136266
    3776.6003     83.857147     70.229858      2.646208      0.008292      0.135854
    3776.5003     84.085388     70.501282      2.645324      0.018575      0.137331
    3776.4003     84.553223     70.845062      2.642426      0.015362      0.139161
