# LAS format data
~Version Information
VERS.     2.00: CWLS LOG ASCII STANDARD - VERSION 2.0
WRAP.       NO: ONE LINE PER DEPTH STEP
~Well Information
#MNEM   .UNITS    DATA                           DESCRIPTION
#----   ------    ----                           -----------
STRT    .M        3881.9004                     :First Index Value
STOP    .M        50.2002                       :Last Index Value
STEP    .M        -0.1000                       :Frame Spacing
NULL    .         -999.2500                     :Absent Value
WELL    .         L07-05                        :Well Name   
FLD     .         UNKNOWN                       :Field Name  
CNTY    .                                       :County
STAT    .                                       :State
CTRY    .                                       :Country
LOC     .                                       :Location
API     .                                       :API Number
DATE    .                                       :Date
COMP    .         PETROLAND                     :Company Name
SRVC    .                                       :Service Company
~Parameter Information
#MNEM   .UNITS    VALUE                          DESCRIPTION
#----   ------    -----                          -----------
TDL     .M          3883.000                    :Total Depth (Logger)
TDD     .M          3886.000                    :Total Depth (Driller)   
UBID    .         7266                          :Unique Borehole Id  
PDAT    .         Mean Sea Level                :Permanent Datum 
EPD     .M           0.00000                    :Elevation of Permanent Datum (PDAT) above Mean Sea Level
LMF     .         Rotary Table                  :Logging Measured From (Name of Logging Elevation Reference) 
APD     .M          31.40000                    :Elevation of Depth Reference (LMF) Above Permanent Datum
EGL     .M         -30.60000                    :Elevation of Ground Level Above Mean Sea Level  
~Curve Information
#MNEM   .UNITS    API CODE                       CURVE DESCRIPTION
#----   ------    --------                       -----------------
DEPT    .M                                      :1     Index curve
GR      .GAPI                                   :2     L07-05
DT      .US/F                                   :3     L07-05
RHOB    .G/C3                                   :4     L07-05
DRHO    .G/C3                                   :5     L07-05
NPHI    .V/V                                    :6     L07-05
~Ascii Log Data
# ...
    3680.3002     32.090218     77.042313      2.482430      0.000114      0.155107
    3680.2002     29.129280     76.004028      2.468657     -0.000015      0.157463
    3680.1002     25.566120     75.181580      2.450430     -0.000006      0.162316
    3680.0002     23.029175     74.624573      2.431035      0.000071      0.168605
    3679.9002     22.216434     74.538101      2.413450      0.000128      0.175074
    3679.8002     22.051670     75.176437      2.399225      0.000167      0.181205
    3679.7002     21.857800     76.639603      2.389596      0.000221      0.186272
    3679.6002     21.641209     78.727921      2.383657      0.000296      0.190130
    3679.5002     21.832035     81.000153      2.379316      0.000347      0.192978
    3679.4002     22.127842     82.994614      2.374725      0.000331      0.194887
    3679.3002     22.175610     84.526962      2.368948      0.000244      0.196396
    3679.2002     22.507381     85.567184      2.360623      0.000161      0.198339
    3679.1002     23.226189     86.160706      2.350839      0.000079      0.200550
    3679.0002     24.102150     86.470428      2.340517     -0.000045      0.202525
    3678.9002     24.607166     86.665909      2.331210     -0.000189      0.203863
    3678.8002     24.875309     86.878494      2.324513     -0.000291      0.204490
    3678.7002     25.328197     87.108963      2.320554     -0.000321      0.204728
    3678.6002     25.689178     87.317139      2.321804     -0.000297      0.204981
    3678.5002     25.353676     87.569763      2.328129     -0.000229      0.205438
    3678.4002     23.842262     87.893463      2.338160     -0.000104      0.206034
    3678.3002     22.255138     88.213058      2.345933     -0.000033      0.206622
    3678.2002     21.356228     88.469940      2.348355     -0.004129      0.207093
    3678.1002     21.112118     88.651367      2.345162     -0.018839      0.207377
    3678.0002     20.725277     88.760925      2.336936     -0.036118      0.207461
    3677.9004     20.030602     88.814728      2.327294     -0.045929      0.207244
    3677.8004     19.748524     88.855698      2.321918     -0.042975      0.206533
    3677.7004     20.702374     88.886826      2.324946     -0.029117      0.204749
    3677.6004     22.944302     88.777084      2.337461     -0.012537      0.201095
    3677.5004     25.911800     88.454468      2.359182     -0.002859      0.195193
    3677.4004     29.358002     87.911209      2.389058     -0.000250      0.186115
    3677.3004     32.800827     86.991272      2.423035      0.000033      0.173910
    3677.2004     35.120834     85.496521      2.454978      0.000103      0.160908
    3677.1004     36.106819     83.404663      2.479494      0.000093      0.149542
    3677.0004     36.365105     81.027191      2.493594      0.000077      0.141823
    3676.9004     36.184288     78.641205      2.498445      0.000064      0.138090
    3676.8004     35.078468     76.404343      2.496948      0.000049      0.137098
    3676.7004     32.941101     74.494827      2.493131      0.000041      0.136691
    3676.6004     31.093788     73.120987      2.489819      0.000011      0.135363
    3676.5004     31.098846     72.462418      2.487371     -0.000056      0.133384
    3676.4004     33.084457     72.431259      2.484770     -0.000126      0.132273
    3676.3004     35.688110     72.630264      2.481444     -0.000166      0.133090
    3676.2004     37.325729     72.705032      2.477539     -0.000157      0.136017
    3676.1004     37.285843     72.618896      2.473505     -0.000114      0.139936
    3676.0004     35.974831     72.583282      2.469687     -0.000102      0.142870
    3675.9004     34.269218     72.725021      2.465722     -0.000149      0.143866
    3675.8004     33.013077     72.983383      2.460694     -0.000204      0.143802
    3675.7004     32.490166     73.304321      2.454310     -0.000218      0.144054
    3675.6004     32.736488     73.746490      2.447741     -0.000196      0.145483
    3675.5004     33.816727     74.339691      2.442557     -0.000155      0.148335
    3675.4004     35.572838     74.903946      2.440596     -0.000112      0.152151
    3675.3004     37.492737     75.186615      2.443125     -0.000077      0.156024
    3675.2004     39.317284     75.169907      2.449346     -0.000043      0.159624
    3675.1004     41.658554     75.036255      2.457408     -0.000003      0.163379
    3675.0004     46.376564     74.918732      2.465636      0.000031      0.168135
    3674.9004     54.958015     74.786926      2.473228      0.000026      0.174168
    3674.8004     64.743439     74.635788      2.480142     -0.000018      0.179981
    3674.7004     71.652939     74.589264      2.487265     -0.000052      0.184019
    3674.6004     76.626770     74.785751      2.496301     -0.000019      0.186431
    3674.5004     83.028427     75.206894      2.508786      0.000076      0.188103
    3674.4004     90.363419     75.739471      2.525510      0.000185      0.189130
    3674.3004     95.502304     76.291977      2.545837      0.000278      0.189039
    3674.2004     95.967819     76.771622      2.567953      0.000370      0.187006
    3674.1004     92.146042     77.043167      2.589270      0.000611      0.182370
    3674.0004     85.123306     76.969696      2.606236      0.001165      0.175847
    3673.9004     75.553574     76.529221      2.616382      0.001586      0.169353
    3673.8004     64.816010     75.786285      2.618445      0.001133      0.165048
    3673.7004     54.028511     74.862457      2.612226      0.000251      0.164159
    3673.6004     43.250725     73.958252      2.596951     -0.000131      0.166340
    3673.5004     33.282715     73.355042      2.572458     -0.000127      0.170224
    3673.4004     26.609810     73.316315      2.540669     -0.000068      0.174189
    3673.3004     24.202755     73.939194      2.504619     -0.000010      0.177207
    3673.2004     23.652805     75.107239      2.469066      0.000030      0.178973
    3673.1004     23.366474     76.517532      2.439425      0.000041      0.179559
    3673.0004     24.184872     77.821716      2.418614     -0.000003      0.179361
    3672.9004     26.681339     78.788559      2.407139     -0.000214      0.178833
    3672.8004     30.137436     79.425720      2.403121     -0.000847      0.178269
    3672.7004     33.430649     79.867935      2.404427     -0.001528      0.177637
    3672.6004     36.044250     80.207535      2.408909     -0.001286      0.176774
    3672.5004     37.437714     80.450897      2.414986     -0.000487      0.175571
    3672.4004     37.186089     80.539749      2.421712     -0.000124      0.174051
    3672.3004     36.056236     80.442322      2.428785     -0.000097      0.172340
    3672.2004     36.216537     80.206589      2.437069     -0.000104      0.170564
    3672.1004     39.070076     79.908783      2.447503     -0.000335      0.168858
    3672.0004     43.690613     79.583176      2.460871     -0.001016      0.167217
    3671.9004     46.827278     79.224121      2.475968     -0.001364      0.165534
    3671.8004     46.467094     78.820633      2.489588     -0.000861      0.163695
    3671.7004     43.903908     78.351349      2.499947     -0.000336      0.161627
    3671.6004     40.913689     77.836151      2.505309     -0.000132      0.159842
    3671.5004     39.110077     77.347107      2.506242      0.000018      0.158956
    3671.4004     40.314377     76.933609      2.505713      0.000142      0.158914
    3671.3004     45.629395     76.644806      2.507522      0.000540      0.159229
    3671.2004     53.575310     76.552811      2.513870      0.001204      0.159223
    3671.1004     59.849831     76.732986      2.524710      0.001209      0.158349
    3671.0004     62.625191     77.131454      2.538307      0.009176      0.156062
    3670.9004     62.563576     77.442078      2.552547      0.024141      0.152531
    3670.8004     58.497566     77.278519      2.563994      0.022027      0.148833
