# LAS format data
~Version Information
VERS.     2.00: CWLS LOG ASCII STANDARD - VERSION 2.0
WRAP.       NO: ONE LINE PER DEPTH STEP
~Well Information
#MNEM   .UNITS    DATA                           DESCRIPTION
#----   ------    ----                           -----------
STRT    .M        3881.9004                     :First Index Value
STOP    .M        50.2002                       :Last Index Value
STEP    .M        -0.1000                       :Frame Spacing
NULL    .         -999.2500                     :Absent Value
WELL    .         L07-05                        :Well Name   
FLD     .         UNKNOWN                       :Field Name  
CNTY    .                                       :County
STAT    .                                       :State
CTRY    .                                       :Country
LOC     .                                       :Location
API     .                                       :API Number
DATE    .                                       :Date
COMP    .         PETROLAND                     :Company Name
SRVC    .                                       :Service Company
~Parameter Information
#MNEM   .UNITS    VALUE                          DESCRIPTION
#----   ------    -----                          -----------
TDL     .M          3883.000                    :Total Depth (Logger)
TDD     .M          3886.000                    :Total Depth (Driller)   
UBID    .         7266                          :Unique Borehole Id  
PDAT    .         Mean Sea Level                :Permanent Datum 
EPD     .M           0.00000                    :Elevation of Permanent Datum (PDAT) above Mean Sea Level
LMF     .         Rotary Table                  :Logging Measured From (Name of Logging Elevation Reference) 
APD     .M          31.40000                    :Elevation of Depth Reference (LMF) Above Permanent Datum
EGL     .M         -30.60000                    :Elevation of Ground Level Above Mean Sea Level  
~Curve Information
#MNEM   .UNITS    API CODE                       CURVE DESCRIPTION
#----   ------    --------                       -----------------
DEPT    .M                                      :1     Index curve
GR      .GAPI                                   :2     L07-05
DT      .US/F                                   :3     L07-05
RHOB    .G/C3                                   :4     L07-05
DRHO    .G/C3                                   :5     L07-05
NPHI    .V/V                                    :6     L07-05
~Ascii Log Data
# ...
    3862.7004    145.780670     70.815308      2.682055      0.000095   -999.250000
    3862.6004    148.535339     71.635818      2.676496      0.000102   -999.250000
    3862.5004    149.169800     71.876221      2.669262      0.000069   -999.250000
    3862.4004    148.366455     71.634247      2.658226      0.000032   -999.250000
    3862.3004    146.024994     71.229950      2.641737      0.000251   -999.250000
    3862.2004    142.426666     70.893997      2.618991      0.003500   -999.250000
    3862.1004    136.357025     70.653381      2.590378      0.019145   -999.250000
    3862.0004    125.900833     70.243073      2.560139      0.041431   -999.250000
    3861.9004    110.659119     69.376404      2.534311      0.039547   -999.250000
    3861.8004     96.081848     68.220901      2.518506      0.016441   -999.250000
    3861.7004     87.859512     67.267502      2.514486      0.002606   -999.250000
    3861.6004     84.623886     66.798065      2.520778      0.000373   -999.250000
    3861.5004     83.673370     66.693024      2.533546      0.000298   -999.250000
    3861.4004     83.772675     66.881714      2.548040      0.000291   -999.250000
    3861.3004     83.339081     67.338333      2.560687      0.000123   -999.250000
    3861.2004     81.521851     67.803543      2.569081     -0.000565   -999.250000
    3861.1004     78.570114     68.015854      2.573073     -0.001648   -999.250000
    3861.0004     75.061996     67.994904      2.573769     -0.001684   -999.250000
    3860.9004     71.972504     67.960510      2.573209     -0.000742   -999.250000
    3860.8004     69.915924     67.999313      2.573456     -0.000274   -999.250000
    3860.7004     68.077942     68.023529      2.575957     -0.001288   -999.250000
    3860.6004     65.376236     67.982071      2.580388     -0.002242   -999.250000
    3860.5004     61.622421     67.964447      2.585373     -0.001493   -999.250000
    3860.4004     57.251045     68.013474      2.589264     -0.000425   -999.250000
    3860.3004     53.325752     68.010086      2.591234      0.000021   -999.250000
    3860.2004     50.825340     67.897690      2.591387      0.000166   -999.250000
    3860.1004     51.083633     67.746536      2.590015      0.000223   -999.250000
    3860.0004     53.547775     67.682663      2.587829     -0.000375   -999.250000
    3859.9004     56.642464     67.812317      2.585517     -0.002047   -999.250000
    3859.8004     58.060608     68.164703      2.583470     -0.002277   -999.250000
    3859.7004     58.200058     68.600601      2.581836     -0.001055   -999.250000
    3859.6004     58.708313     68.833099      2.580657     -0.000188   -999.250000
    3859.5004     58.877045     68.726639      2.578901      0.000076   -999.250000
    3859.4004     58.299583     68.480759      2.576247      0.000135   -999.250000
    3859.3004     57.408104     68.343033      2.573058      0.000165   -999.250000
    3859.2004     57.014404     68.395691      2.570128      0.000211   -999.250000
    3859.1004     57.299576     68.563187      2.568551      0.000260   -999.250000
    3859.0004     58.071419     68.727386      2.569128      0.000283   -999.250000
    3858.9004     58.393349     68.819138      2.572570      0.000298   -999.250000
    3858.8004     57.949478     68.868210      2.577485      0.000316   -999.250000
    3858.7004     56.924423     68.888290      2.582283      0.000330   -999.250000
    3858.6004     54.788155     68.824356      2.585202      0.000316   -999.250000
    3858.5004     52.096581     68.644638      2.586088      0.000299   -999.250000
    3858.4004     50.196587     68.463150      2.585447      0.000351   -999.250000
    3858.3004     50.545364     68.444122      2.584946      0.000385   -999.250000
    3858.2004     52.778191     68.543854      2.585103      0.000357   -999.250000
    3858.1004     55.360634     68.594070      2.584991      0.000346   -999.250000
    3858.0004     57.687706     68.462204      2.583132      0.000333   -999.250000
    3857.9004     60.122696     68.179276      2.579024      0.000449   -999.250000
    3857.8004     63.226265     67.876282      2.572175      0.001389   -999.250000
    3857.7004     66.141846     67.691055      2.564554      0.001915   -999.250000
    3857.6004     68.202621     67.673401      2.557832      0.001135   -999.250000
    3857.5004     69.275345     67.798279      2.553964      0.000322   -999.250000
    3857.4004     68.666153     67.979843      2.552973      0.000085   -999.250000
    3857.3004     66.188889     68.074982      2.553777      0.000068   -999.250000
    3857.2004     64.513672     67.973892      2.555338      0.000064   -999.250000
    3857.1004     64.145767     67.685333      2.556797      0.000077   -999.250000
    3857.0004     63.693398     67.361176      2.557773      0.000120   -999.250000
    3856.9004     64.093491     67.213715      2.559616      0.000167   -999.250000
    3856.8004     65.502625     67.434906      2.563148      0.000203   -999.250000
    3856.7004     66.524750     68.048416      2.567709      0.000228   -999.250000
    3856.6004     66.182632     68.856995      2.571932      0.000233   -999.250000
    3856.5004     64.307495     69.591522      2.574253      0.000212   -999.250000
    3856.4004     61.225090     70.085220      2.573551      0.000174   -999.250000
    3856.3004     58.094933     70.302460      2.569975      0.000151   -999.250000
    3856.2004     55.504295     70.195602      2.564806      0.000167   -999.250000
    3856.1004     52.989738     69.738266      2.559758      0.000201   -999.250000
    3856.0004     50.543198     69.045486      2.555809      0.000217   -999.250000
    3855.9004     48.728638     68.398605      2.553117      0.000201   -999.250000
    3855.8004     47.870697     68.075134      2.551321      0.000182   -999.250000
    3855.7004     48.540787     68.114944      2.550896      0.000185   -999.250000
    3855.6004     52.132744     68.398941      2.552985      0.000314   -999.250000
    3855.5004     59.502335     68.780731      2.558135      0.001766   -999.250000
    3855.4004     67.683289     69.189835      2.566231      0.008185   -999.250000
    3855.3004     71.826248     69.585632      2.575326      0.017470   -999.250000
    3855.2004     72.192108     69.932159      2.582675      0.018175   -999.250000
    3855.1004     71.191360     70.162979      2.585981      0.008818   -999.250000
    3855.0004     69.802597     70.232422      2.584746      0.001729   -999.250000
    3854.9004     68.202866     70.177429      2.580265      0.000313   -999.250000
    3854.8004     66.203461     70.079391      2.574259      0.000289   -999.250000
    3854.7004     63.938164     69.999359      2.568388      0.000316   -999.250000
    3854.6004     62.205597     69.969620      2.563650      0.000412   -999.250000
    3854.5004     61.819885     70.046936      2.560367      0.000908   -999.250000
    3854.4004     62.567818     70.303268      2.558505      0.001768   -999.250000
    3854.3004     63.491966     70.758484      2.557875      0.002014   -999.250000
    3854.2004     63.743858     71.368179      2.557804      0.001128   -999.250000
    3854.1004     63.350471     72.082138      2.556710      0.000196   -999.250000
    3854.0004     63.059135     72.845306      2.552716     -0.000087   -999.250000
    3853.9004     63.153511     73.530716      2.544549     -0.000133   -999.250000
    3853.8004     62.908569     73.975281      2.532179     -0.000154   -999.250000
    3853.7004     61.655449     74.076996      2.516764     -0.000163   -999.250000
    3853.6004     58.856194     73.891129      2.500328     -0.000155   -999.250000
    3853.5004     53.852066     73.613266      2.484972     -0.000142   -999.250000
    3853.4004     47.742554     73.423904      2.472623     -0.000196   -999.250000
    3853.3004     42.556839     73.389572      2.464108     -0.000506   -999.250000
    3853.2004     38.590256     73.502274      2.459109     -0.001207   -999.250000
