# LAS format data
~Version Information
VERS.     2.00: CWLS LOG ASCII STANDARD - VERSION 2.0
WRAP.       NO: ONE LINE PER DEPTH STEP
~Well Information
#MNEM   .UNITS    DATA                           DESCRIPTION
#----   ------    ----                           -----------
STRT    .M        3881.9004                     :First Index Value
STOP    .M        50.2002                       :Last Index Value
STEP    .M        -0.1000                       :Frame Spacing
NULL    .         -999.2500                     :Absent Value
WELL    .         L07-05                        :Well Name   
FLD     .         UNKNOWN                       :Field Name  
CNTY    .                                       :County
STAT    .                                       :State
CTRY    .                                       :Country
LOC     .                                       :Location
API     .                                       :API Number
DATE    .                                       :Date
COMP    .         PETROLAND                     :Company Name
SRVC    .                                       :Service Company
~Parameter Information
#MNEM   .UNITS    VALUE                          DESCRIPTION
#----   ------    -----                          -----------
TDL     .M          3883.000                    :Total Depth (Logger)
TDD     .M          3886.000                    :Total Depth (Driller)   
UBID    .         7266                          :Unique Borehole Id  
PDAT    .         Mean Sea Level                :Permanent Datum 
EPD     .M           0.00000                    :Elevation of Permanent Datum (PDAT) above Mean Sea Level
LMF     .         Rotary Table                  :Logging Measured From (Name of Logging Elevation Reference) 
APD     .M          31.40000                    :Elevation of Depth Reference (LMF) Above Permanent Datum
EGL     .M         -30.60000                    :Elevation of Ground Level Above Mean Sea Level  
~Curve Information
#MNEM   .UNITS    API CODE                       CURVE DESCRIPTION
#----   ------    --------                       -----------------
DEPT    .M                                      :1     Index curve
GR      .GAPI                                   :2     L07-05
DT      .US/F                                   :3     L07-05
RHOB    .G/C3                                   :4     L07-05
DRHO    .G/C3                                   :5     L07-05
NPHI    .V/V                                    :6     L07-05
~Ascii Log Data
# ...
    3641.9004     39.665077     71.616135      2.548273      0.001086      0.137961
    3641.8004     36.036896     72.199478      2.523338      0.000403      0.143134
    3641.7004     33.643852     73.236908      2.501945      0.000196      0.147315
    3641.6004     31.545380     74.445084      2.485285      0.000093      0.150097
    3641.5004     29.911453     75.598724      2.473383      0.000028      0.151765
    3641.4004     29.015480     76.486176      2.464917      0.000034      0.153113
    3641.3004     28.556087     76.886520      2.458606      0.000064      0.154987
    3641.2004     28.006527     76.819550      2.452468      0.000042      0.158168
    3641.1004     27.532047     76.606781      2.444766     -0.000034      0.163029
    3641.0004     27.411297     76.656662      2.434951     -0.000106      0.169345
    3640.9004     27.141136     77.203781      2.423112     -0.000053      0.176803
    3640.8004     26.370449     78.222748      2.409159      0.000434      0.184782
    3640.7004     25.611332     79.560547      2.394033      0.001080      0.192199
    3640.6004     25.687099     81.126801      2.379872      0.000945      0.197819
    3640.5004     26.491875     82.793015      2.369086      0.000358      0.200382
    3640.4004     27.459396     84.290115      2.363045      0.000541      0.199529
    3640.3004     28.402760     85.237122      2.361382      0.001706      0.196724
    3640.2004     28.725044     85.432129      2.362672      0.001842      0.193972
    3640.1004     28.223267     85.041824      2.364752      0.000562      0.192339
    3640.0004     27.729740     84.497864      2.365872      0.000788      0.191839
    3639.9004     27.456371     84.203278      2.365459      0.001683      0.192001
    3639.8004     27.252434     84.319305      2.363806      0.001156      0.192243
    3639.7004     27.435795     84.707382      2.361466      0.000389      0.192154
    3639.6004     27.599876     85.089035      2.358920      0.000157      0.191567
    3639.5004     27.078781     85.209457      2.356914      0.000066      0.190715
    3639.4004     25.727501     84.982483      2.356504     -0.000049      0.190027
    3639.3004     23.997627     84.482590      2.358477     -0.000143      0.189786
    3639.2004     22.667992     83.875015      2.362762     -0.000419      0.190121
    3639.1004     22.724361     83.310989      2.369226     -0.001510      0.190974
    3639.0004     23.949833     82.827774      2.377381     -0.002068      0.192329
    3638.9004     25.561935     82.379227      2.386530     -0.001222      0.193842
    3638.8004     27.353363     81.873077      2.397607     -0.000341      0.195050
    3638.7004     29.053791     81.269608      2.409688     -0.000030      0.195371
    3638.6004     30.467236     80.667007      2.420565      0.000034      0.194591
    3638.5004     32.051552     80.145203      2.428899      0.000006      0.192867
    3638.4004     33.664597     79.720749      2.433876     -0.000020      0.191116
    3638.3004     34.828690     79.383667      2.436504      0.000106      0.190035
    3638.2004     34.761589     79.150085      2.442390      0.001010      0.189489
    3638.1004     34.159973     79.049118      2.454603      0.001672      0.188300
    3638.0004     33.935471     78.931656      2.471686      0.001134      0.185785
    3637.9004     33.498222     78.628723      2.490551      0.000541      0.181959
    3637.8004     34.119362     78.234100      2.504365      0.000770      0.177664
    3637.7004     37.168022     78.139984      2.510234      0.001802      0.174032
    3637.6004     40.004959     78.703262      2.502632      0.001759      0.172920
    3637.5004     40.413437     79.897781      2.484203      0.000866      0.174642
    3637.4004     38.051361     81.474915      2.458680      0.000281      0.178075
    3637.3004     34.886284     83.117493      2.430290      0.000095      0.182093
    3637.2004     31.787346     84.561264      2.403493      0.000012      0.185672
    3637.1006     28.206806     85.700134      2.379242     -0.000086      0.188339
    3637.0006     25.315651     86.461151      2.360454     -0.000164      0.189400
    3636.9006     23.386074     86.920059      2.346540     -0.000214      0.190046
    3636.8006     21.888092     87.161774      2.336436     -0.000256      0.191901
    3636.7006     21.333961     87.268402      2.329539     -0.000285      0.195377
    3636.6006     21.878567     87.302505      2.324578     -0.000300      0.200144
    3636.5006     23.239307     87.324738      2.320791     -0.000305      0.205650
    3636.4006     24.327999     87.420349      2.317876     -0.000325      0.211115
    3636.3006     24.592888     87.686234      2.315562     -0.000362      0.215772
    3636.2006     23.973824     88.129684      2.314112     -0.000388      0.218799
    3636.1006     22.965485     88.665543      2.314412     -0.000359      0.219769
    3636.0006     22.033543     89.116959      2.316803     -0.000278      0.218524
    3635.9006     21.370899     89.256775      2.321360     -0.000205      0.215356
    3635.8006     21.502674     88.867065      2.328258     -0.000181      0.210198
    3635.7006     22.539295     87.897217      2.336902     -0.000204      0.203866
    3635.6006     23.602169     86.545792      2.346148     -0.000267      0.198135
    3635.5006     25.658550     85.036316      2.356943     -0.000316      0.194335
    3635.4006     29.958076     83.613129      2.369792     -0.000297      0.193125
    3635.3006     36.363625     82.402756      2.384761     -0.000218      0.193985
    3635.2006     42.259972     81.459259      2.401655     -0.000111      0.195974
    3635.1006     44.631454     80.859344      2.418150     -0.000009      0.197233
    3635.0006     42.667328     80.602570      2.429654      0.000056      0.195594
    3634.9006     38.410370     80.611160      2.434034      0.000059      0.191437
    3634.8006     35.281616     80.767380      2.433775      0.000004      0.187440
    3634.7006     35.064377     81.010895      2.432796     -0.000055      0.184845
    3634.6006     38.175819     81.318741      2.435447     -0.000068      0.183552
    3634.5006     43.459747     81.538757      2.444685     -0.000039      0.182985
    3634.4006     47.785187     81.379807      2.460248     -0.000020      0.182254
    3634.3006     48.494591     80.617142      2.477956     -0.000027      0.180583
    3634.2006     45.984711     79.341888      2.491659     -0.000011      0.177907
    3634.1006     41.656708     77.997391      2.496127      0.000047      0.175056
    3634.0006     36.560097     77.228516      2.489124      0.000115      0.173236
    3633.9006     31.369431     77.465576      2.472381      0.000247      0.173191
    3633.8006     27.087944     78.737656      2.449503      0.000664      0.175257
    3633.7006     24.996773     80.651794      2.425390      0.001192      0.179190
    3633.6006     25.462196     82.661179      2.404428      0.001101      0.184069
    3633.5006     27.895370     84.259842      2.389732      0.000437      0.188724
    3633.4006     31.305668     85.068680      2.383361      0.000047      0.192109
    3633.3006     34.931786     85.031113      2.384182      0.000038      0.193806
    3633.2006     37.727341     84.354889      2.390178      0.000068      0.193869
    3633.1006     38.553558     83.342911      2.399529      0.000082      0.192527
    3633.0006     38.479080     82.213287      2.410905      0.000089      0.190183
    3632.9006     40.311539     81.088379      2.424485      0.000097      0.187234
    3632.8006     45.892365     80.024063      2.441169      0.000117      0.183965
    3632.7006     54.510925     79.079514      2.461349      0.000139      0.180720
    3632.6006     63.273270     78.306107      2.483441      0.000141      0.177828
    3632.5006     69.972931     77.578247      2.505836      0.000259      0.175175
    3632.4006     73.905869     76.702194      2.527621      0.001552      0.172678
