# LAS format data
~Version Information
VERS.     2.00: CWLS LOG ASCII STANDARD - VERSION 2.0
WRAP.       NO: ONE LINE PER DEPTH STEP
~Well Information
#MNEM   .UNITS    DATA                           DESCRIPTION
#----   ------    ----                           -----------
STRT    .M        3881.9004                     :First Index Value
STOP    .M        50.2002                       :Last Index Value
STEP    .M        -0.1000                       :Frame Spacing
NULL    .         -999.2500                     :Absent Value
WELL    .         L07-05                        :Well Name   
FLD     .         UNKNOWN                       :Field Name  
CNTY    .                                       :County
STAT    .                                       :State
CTRY    .                                       :Country
LOC     .                                       :Location
API     .                                       :API Number
DATE    .                                       :Date
COMP    .         PETROLAND                     :Company Name
SRVC    .                                       :Service Company
~Parameter Information
#MNEM   .UNITS    VALUE                          DESCRIPTION
#----   ------    -----                          -----------
TDL     .M          3883.000                    :Total Depth (Logger)
TDD     .M          3886.000                    :Total Depth (Driller)   
UBID    .         7266                          :Unique Borehole Id  
PDAT    .         Mean Sea Level                :Permanent Datum 
EPD     .M           0.00000                    :Elevation of Permanent Datum (PDAT) above Mean Sea Level
LMF     .         Rotary Table                  :Logging Measured From (Name of Logging Elevation Reference) 
APD     .M          31.40000                    :Elevation of Depth Reference (LMF) Above Permanent Datum
EGL     .M         -30.60000                    :Elevation of Ground Level Above Mean Sea Level  
~Curve Information
#MNEM   .UNITS    API CODE                       CURVE DESCRIPTION
#----   ------    --------                       -----------------
DEPT    .M                                      :1     Index curve
GR      .GAPI                                   :2     L07-05
DT      .US/F                                   :3     L07-05
RHOB    .G/C3                                   :4     L07-05
DRHO    .G/C3                                   :5     L07-05
NPHI    .V/V                                    :6     L07-05
~Ascii Log Data
# ...
    3805.1006     45.658661     76.727234      2.416435      0.000238   -999.250000
    3805.0006     55.873909     76.913879      2.411306      0.000068   -999.250000
    3804.9006     63.988121     77.340271      2.410016      0.000216   -999.250000
    3804.8006     69.064728     77.779465      2.415897      0.000340   -999.250000
    3804.7006     73.449997     77.724762      2.428798      0.000339   -999.250000
    3804.6006     80.919846     76.873001      2.447604      0.000236   -999.250000
    3804.5006     88.456253     75.457138      2.467668      0.000096   -999.250000
    3804.4006     91.395523     73.958435      2.485827     -0.000038   -999.250000
    3804.3006     86.008728     72.758972      2.500310     -0.000148   -999.250000
    3804.2006     75.114655     71.903519      2.511503     -0.000169   -999.250000
    3804.1006     62.577591     71.346588      2.521811     -0.000337   -999.250000
    3804.0006     50.100723     71.053391      2.532773     -0.001341   -999.250000
    3803.9006     39.069740     70.834427      2.545197     -0.002098   -999.250000
    3803.8006     31.038040     70.484131      2.557185     -0.001435   -999.250000
    3803.7006     25.871323     69.973465      2.562910     -0.000495   -999.250000
    3803.6006     22.498516     69.443253      2.558950     -0.000196   -999.250000
    3803.5006     20.049232     68.991272      2.546753     -0.000208   -999.250000
    3803.4006     18.442688     68.601562      2.529641     -0.000229   -999.250000
    3803.3006     17.843212     68.230453      2.512378     -0.000234   -999.250000
    3803.2006     18.018494     67.895828      2.499908     -0.000227   -999.250000
    3803.1006     18.126869     67.646957      2.494009     -0.000216   -999.250000
    3803.0006     17.728146     67.490906      2.492974     -0.000212   -999.250000
    3802.9006     17.272175     67.416946      2.494314     -0.000218   -999.250000
    3802.8006     17.274807     67.418076      2.496122     -0.000223   -999.250000
    3802.7006     17.518322     67.487946      2.497501     -0.000220   -999.250000
    3802.6006     17.333942     67.610916      2.498443     -0.000215   -999.250000
    3802.5006     16.923260     67.769562      2.499727     -0.000215   -999.250000
    3802.4006     17.263302     67.950516      2.501487     -0.000225   -999.250000
    3802.3006     18.666740     68.139771      2.502627     -0.000371   -999.250000
    3802.2006     20.194523     68.333298      2.502500     -0.000951   -999.250000
    3802.1006     20.628609     68.524612      2.501199     -0.001707   -999.250000
    3802.0006     19.983166     68.700226      2.498941     -0.001621   -999.250000
    3801.9006     19.308800     68.846176      2.496540     -0.000717   -999.250000
    3801.8006     19.384296     68.944199      2.494913     -0.000159   -999.250000
    3801.7006     19.946377     68.984589      2.493492     -0.000112   -999.250000
    3801.6006     20.348068     68.962601      2.491289     -0.000138   -999.250000
    3801.5006     20.374462     68.906662      2.488216     -0.000162   -999.250000
    3801.4006     20.296463     68.906464      2.484580     -0.000181   -999.250000
    3801.3006     21.346485     69.086761      2.480832     -0.000187   -999.250000
    3801.2006     24.982498     69.519424      2.477253     -0.000189   -999.250000
    3801.1006     30.811447     70.147766      2.473855     -0.000265   -999.250000
    3801.0006     36.417549     70.781891      2.470955     -0.000577   -999.250000
    3800.9006     39.908897     71.213470      2.469391     -0.001049   -999.250000
    3800.8006     41.501518     71.287308      2.470147     -0.001111   -999.250000
    3800.7006     43.031555     70.965515      2.474347     -0.000538   -999.250000
    3800.6006     45.409637     70.337524      2.483228      0.000011   -999.250000
    3800.5006     47.845886     69.580170      2.497378      0.000179   -999.250000
    3800.4006     48.717987     68.910095      2.515617      0.000231   -999.250000
    3800.3003     47.546936     68.466141      2.535126      0.000364   -999.250000
    3800.2003     45.061310     68.256409      2.553328      0.000627   -999.250000
    3800.1003     42.489044     68.206635      2.567866      0.000513   -999.250000
    3800.0003     40.696732     68.286484      2.577039     -0.000510   -999.250000
    3799.9003     39.531837     68.583572      2.580338     -0.001421   -999.250000
    3799.8003     38.301155     69.218948      2.577939     -0.001034   -999.250000
    3799.7003     36.766449     70.230911      2.569864     -0.000281   -999.250000
    3799.6003     34.839058     71.526749      2.555330     -0.000036   -999.250000
    3799.5003     32.150436     72.995544      2.533433      0.000039   -999.250000
    3799.4003     28.596161     74.491608      2.506155      0.000092   -999.250000
    3799.3003     24.770935     75.801407      2.477347      0.000094   -999.250000
    3799.2003     21.615952     76.768021      2.450020      0.000041   -999.250000
    3799.1003     19.780754     77.349014      2.426764     -0.000109   -999.250000
    3799.0003     19.154255     77.692123      2.408275     -0.000646   -999.250000
    3798.9003     19.202309     77.958755      2.393749     -0.001364   -999.250000
    3798.8003     19.472851     78.191574      2.381628     -0.001286   -999.250000
    3798.7003     19.906029     78.348022      2.371375     -0.000569   -999.250000
    3798.6003     20.487476     78.383179      2.363781     -0.000181   -999.250000
    3798.5003     20.959644     78.298416      2.359336     -0.000147   -999.250000
    3798.4003     20.869904     78.127121      2.358441     -0.000158   -999.250000
    3798.3003     20.270729     77.942459      2.360672     -0.000162   -999.250000
    3798.2003     19.958282     77.812759      2.365067     -0.000163   -999.250000
    3798.1003     19.945732     77.769424      2.370897     -0.000163   -999.250000
    3798.0003     19.832630     77.823029      2.377065     -0.000163   -999.250000
    3797.9003     20.107498     77.987228      2.382586     -0.000162   -999.250000
    3797.8003     20.763313     78.245773      2.386112     -0.000156   -999.250000
    3797.7003     21.152512     78.500549      2.387154     -0.000142   -999.250000
    3797.6003     20.744267     78.646530      2.385830     -0.000131   -999.250000
    3797.5003     20.577019     78.668716      2.382909     -0.000142   -999.250000
    3797.4003     21.580723     78.680313      2.379347     -0.000174   -999.250000
    3797.3003     22.977100     78.778702      2.376096     -0.000165   -999.250000
    3797.2003     23.620831     78.915390      2.373993      0.000460   -999.250000
    3797.1003     23.382423     78.937668      2.373115      0.001814   -999.250000
    3797.0003     23.393669     78.727844      2.373562      0.001860   -999.250000
    3796.9003     24.762413     78.268356      2.375292      0.000799   -999.250000
    3796.8003     27.832989     77.561752      2.378030      0.000046   -999.250000
    3796.7003     33.476669     76.631775      2.381087     -0.000199   -999.250000
    3796.6003     39.622078     75.489212      2.384380     -0.000230   -999.250000
    3796.5003     43.778824     74.225967      2.388166     -0.000223   -999.250000
    3796.4003     45.498688     72.961868      2.393762     -0.001181   -999.250000
    3796.3003     44.797966     71.775299      2.403069     -0.002101   -999.250000
    3796.2003     41.474052     70.765915      2.417057     -0.001361   -999.250000
    3796.1003     38.560272     70.092377      2.438883     -0.000395   -999.250000
    3796.0003     38.464851     69.892761      2.465888     -0.000007   -999.250000
    3795.9003     42.188934     70.180862      2.493016      0.000080   -999.250000
    3795.8003     45.516289     70.808121      2.514546      0.000088   -999.250000
    3795.7003     46.416740     71.577530      2.529083      0.000454   -999.250000
    3795.6003     45.154739     72.360260      2.535016      0.001677   -999.250000
