# LAS format data
~Version Information
VERS.     2.00: CWLS LOG ASCII STANDARD - VERSION 2.0
WRAP.       NO: ONE LINE PER DEPTH STEP
~Well Information
#MNEM   .UNITS    DATA                           DESCRIPTION
#----   ------    ----                           -----------
STRT    .M        3881.9004                     :First Index Value
STOP    .M        50.2002                       :Last Index Value
STEP    .M        -0.1000                       :Frame Spacing
NULL    .         -999.2500                     :Absent Value
WELL    .         L07-05                        :Well Name   
FLD     .         UNKNOWN                       :Field Name  
CNTY    .                                       :County
STAT    .                                       :State
CTRY    .                                       :Country
LOC     .                                       :Location
API     .                                       :API Number
DATE    .                                       :Date
COMP    .         PETROLAND                     :Company Name
SRVC    .                                       :Service Company
~Parameter Information
#MNEM   .UNITS    VALUE                          DESCRIPTION
#----   ------    -----                          -----------
TDL     .M          3883.000                    :Total Depth (Logger)
TDD     .M          3886.000                    :Total Depth (Driller)   
UBID    .         7266                          :Unique Borehole Id  
PDAT    .         Mean Sea Level                :Permanent Datum 
EPD     .M           0.00000                    :Elevation of Permanent Datum (PDAT) above Mean Sea Level
LMF     .         Rotary Table                  :Logging Measured From (Name of Logging Elevation Reference) 
APD     .M          31.40000                    :Elevation of Depth Reference (LMF) Above Permanent Datum
EGL     .M         -30.60000                    :Elevation of Ground Level Above Mean Sea Level  
~Curve Information
#MNEM   .UNITS    API CODE                       CURVE DESCRIPTION
#----   ------    --------                       -----------------
DEPT    .M                                      :1     Index curve
GR      .GAPI                                   :2     L07-05
DT      .US/F                                   :3     L07-05
RHOB    .G/C3                                   :4     L07-05
DRHO    .G/C3                                   :5     L07-05
NPHI    .V/V                                    :6     L07-05
~Ascii Log Data
# ...
    3622.7006     40.488777     79.445663      2.465142      0.000961      0.176969
    3622.6006     40.917435     78.361923      2.471690      0.000458      0.172548
    3622.5006     41.964439     77.718231      2.471932      0.000414      0.169651
    3622.4006     42.345062     77.444122      2.464934      0.000707      0.169634
    3622.3006     40.449936     77.291306      2.451891      0.001219      0.172555
    3622.2006     36.338394     77.071793      2.436186      0.001366      0.177154
    3622.1006     31.838596     76.946838      2.421865      0.000774      0.181622
    3622.0006     28.315628     77.168350      2.410985      0.000142      0.184724
    3621.9006     26.161171     77.697861      2.404254     -0.000054      0.185934
    3621.8006     25.361919     78.307449      2.402295     -0.000114      0.185574
    3621.7006     25.774059     78.874130      2.404453     -0.000142      0.184800
    3621.6006     27.109505     79.347763      2.409803     -0.000111      0.184718
    3621.5006     28.915989     79.620895      2.417194     -0.000056      0.185629
    3621.4006     30.899227     79.598450      2.424357     -0.000013      0.187156
    3621.3006     33.156174     79.348373      2.428977     -0.000002      0.188792
    3621.2006     35.721687     79.042435      2.430346     -0.000009      0.190551
    3621.1006     37.817223     78.796097      2.429423      0.000096      0.192722
    3621.0006     38.976952     78.662949      2.428866      0.000565      0.195135
    3620.9006     40.261360     78.741882      2.431806      0.001244      0.196960
    3620.8006     43.225822     79.191284      2.440385      0.001322      0.197080
    3620.7006     48.053650     80.002808      2.454432      0.000698      0.194700
    3620.6006     53.026703     80.872772      2.471430      0.000250      0.189765
    3620.5006     55.993004     81.364700      2.486450      0.000051      0.183300
    3620.4006     55.537308     81.229111      2.493390     -0.000517      0.177169
    3620.3006     51.928474     80.575577      2.488046     -0.001382      0.173290
    3620.2006     46.792976     79.746384      2.470950     -0.001576      0.172555
    3620.1006     41.162033     79.134705      2.446341     -0.000864      0.173849
    3620.0006     35.727257     79.122849      2.421605     -0.000237      0.174710
    3619.9006     32.363953     79.969345      2.404792     -0.000020      0.173253
    3619.8006     32.717705     81.617538      2.400826      0.000316      0.169233
    3619.7006     35.942657     83.540649      2.408757      0.000935      0.163916
    3619.6006     38.970634     84.890182      2.422612      0.001105      0.159391
    3619.5006     39.463448     85.007339      2.434583      0.000576      0.158523
    3619.4006     37.647324     83.882935      2.438591      0.000054      0.163051
    3619.3006     34.721718     82.127472      2.430393     -0.000894      0.171794
    3619.2006     31.774773     80.588425      2.409798     -0.007038      0.182320
    3619.1006     29.566452     79.984741      2.383211     -0.021333      0.192450
    3619.0006     28.337875     80.621048      2.358683     -0.035599      0.201536
    3618.9006     29.001312     82.321106      2.343616     -0.041238      0.209576
    3618.8006     32.870804     84.542099      2.341425     -0.038100      0.215929
    3618.7006     43.257576     86.568771      2.356440     -0.025649      0.218737
    3618.6006     60.199135     87.714554      2.386250     -0.010258      0.216242
    3618.5006     81.353073     87.514145      2.424704     -0.001973      0.208321
    3618.4006     97.022507     85.887192      2.464982     -0.000250      0.196044
    3618.3006    100.357819     83.385406      2.500417     -0.000272      0.181272
    3618.2006     92.412048     80.718262      2.531021     -0.000334      0.165150
    3618.1006     80.670700     78.338882      2.553364     -0.000151      0.149574
    3618.0006     71.588425     76.162125      2.566977      0.000179      0.137337
    3617.9006     65.995758     73.981247      2.575540      0.000388      0.128671
    3617.8006     62.363571     72.116302      2.579314      0.000399      0.122750
    3617.7006     59.590576     71.055023      2.579324      0.003844      0.118743
    3617.6006     58.081833     70.795151      2.576938      0.016876      0.116520
    3617.5006     57.162743     70.793060      2.572605      0.029263      0.116697
    3617.4006     55.457893     70.617691      2.566076      0.031626      0.119033
    3617.3006     51.730347     70.376999      2.556547      0.019580      0.122598
    3617.2006     46.749985     70.383514      2.543469      0.007026      0.127555
    3617.1006     41.722878     70.589752      2.526414      0.001587      0.134654
    3617.0006     37.955536     70.896988      2.504985      0.000332      0.143536
    3616.9006     35.334915     71.464996      2.480267      0.000043      0.154380
    3616.8006     33.396759     72.516678      2.455126     -0.000179      0.166332
    3616.7006     32.050514     73.935287      2.432628     -0.000250      0.177884
    3616.6006     30.903610     75.398911      2.413685      0.000575      0.187867
    3616.5006     29.662334     76.730362      2.396892      0.001974      0.195617
    3616.4006     28.332485     78.028259      2.377941      0.001200      0.201198
    3616.3006     26.907276     79.680862      2.354917     -0.007501      0.204729
    3616.2006     25.367531     82.041382      2.329584     -0.025525      0.205944
    3616.1006     23.351898     85.234665      2.304176     -0.049963      0.204769
    3616.0006     21.716438     88.891891      2.282958     -0.068003      0.200991
    3615.9006     21.182564     92.514450      2.268196     -0.072437      0.195627
    3615.8006     21.160469     95.867798      2.259938     -0.070910      0.190002
    3615.7006     20.917202     98.731445      2.256938     -0.069640      0.185749
    3615.6006     20.288059    100.815536      2.257555     -0.069408      0.184058
    3615.5006     20.450245    102.064255      2.261015     -0.067393      0.185364
    3615.4006     21.193325    102.504517      2.265934     -0.062801      0.189484
    3615.3006     21.489079    102.241974      2.270846     -0.056851      0.194700
    3615.2006     21.254772    101.434128      2.273446     -0.051276      0.198948
    3615.1006     21.178303    100.315155      2.273131     -0.049469      0.200617
    3615.0006     21.844185     99.126450      2.270693     -0.054122      0.199793
    3614.9006     21.874786     98.171692      2.267064     -0.057670      0.197271
    3614.8006     20.895069     97.864822      2.263625     -0.055473      0.193844
    3614.7006     19.998802     98.328766      2.261119     -0.050332      0.189684
    3614.6006     20.551174     99.426514      2.259870     -0.036284      0.184512
    3614.5006     22.620209    100.953064      2.261988     -0.022273      0.178033
    3614.4006     25.522972    102.685059      2.271271     -0.030647      0.170294
    3614.3006     29.003624    104.105316      2.291820     -0.045847      0.161548
    3614.2006     33.537224    104.347427      2.324711     -0.044336      0.151807
    3614.1006     39.857147    102.745056      2.369171     -0.026540      0.141627
    3614.0006     46.393036     99.481842      2.418874     -0.009075      0.133300
    3613.9006     51.953255     95.194077      2.467377     -0.001323      0.128099
    3613.8006     57.208992     90.552505      2.507279      0.000088      0.125682
    3613.7006     61.104019     85.917953      2.530993      0.000192      0.125079
    3613.6006     62.068970     81.329254      2.538016     -0.000012      0.125305
    3613.5006     60.523323     77.086685      2.532165     -0.000801      0.125435
    3613.4006     56.974525     73.793747      2.519924     -0.001477      0.124815
    3613.3006     51.704758     72.112518      2.508948     -0.001060      0.123564
    3613.2006     46.302292     72.206085      2.503663     -0.000227      0.122745
